School Name,State,School Sector,School Type,ABS Remoteness Area Name,Latitude,Longitude
Corpus Christi Catholic School,TAS,Catholic,Primary,Inner Regional,-42.871256,147.371473
Fahan School,TAS,Independent,Combined,Inner Regional,-42.91615827,147.3527644
Geneva Christian College,TAS,Independent,Combined,Outer Regional,-41.226741,146.438726
Holy Rosary Catholic School,TAS,Catholic,Primary,Inner Regional,-42.789375,147.248306
Immaculate Heart of Mary Catholic School,TAS,Catholic,Primary,Inner Regional,-42.865543,147.290159
John Calvin School,TAS,Independent,Combined,Inner Regional,-41.447919,147.144799
Larmenier Catholic School,TAS,Catholic,Primary,Inner Regional,-41.460784,147.194752
Launceston Church Grammar School,TAS,Independent,Secondary,Inner Regional,-41.408156,147.128813
St James Catholic College,TAS,Catholic,Combined,Outer Regional,-43.161812,147.075798
Our Lady of Lourdes Catholic School,TAS,Catholic,Primary,Outer Regional,-41.18021,146.355196
Our Lady of Mercy Catholic School,TAS,Catholic,Primary,Outer Regional,-41.525172,146.64995
Sacred Heart Catholic School,TAS,Catholic,Primary,Outer Regional,-41.155798,146.186851
Sacred Heart Catholic School,TAS,Catholic,Primary,Outer Regional,-43.165474,146.943967
St Aloysius Catholic College - Kingston Beach Campus,TAS,Catholic,Combined,Inner Regional,-42.99075,147.322982
St Anthony's Catholic School,TAS,Catholic,Primary,Inner Regional,-41.4062,147.095
St Peter Chanel Catholic School,TAS,Catholic,Primary,Outer Regional,-40.845638,145.131883
St Brigid's Catholic School,TAS,Catholic,Primary,Inner Regional,-42.78063,147.056171
St Brigid's Catholic School,TAS,Catholic,Primary,Outer Regional,-40.988286,145.726855
St Cuthbert's Catholic School,TAS,Catholic,Primary,Inner Regional,-42.843192,147.355348
St John's Catholic School,TAS,Catholic,Primary,Outer Regional,-42.733415,147.441563
St Joseph's Catholic School,TAS,Catholic,Primary,Remote,-41.780321,145.543953
St Joseph's Catholic School,TAS,Catholic,Primary,Remote,-42.081342,145.559515
St Mary's College,TAS,Catholic,Combined,Inner Regional,-42.881808,147.319687
St Patrick's Catholic School,TAS,Catholic,Primary,Outer Regional,-41.235575,146.418418
St Therese's Catholic School,TAS,Catholic,Primary,Inner Regional,-42.846795,147.290228
Hilliard Christian School,TAS,Independent,Combined,Inner Regional,-42.853786,147.28761
Star of the Sea Catholic College,TAS,Catholic,Combined,Outer Regional,-41.107781,146.829593
Stella Maris Catholic School,TAS,Catholic,Primary,Outer Regional,-41.051103,145.887728
The Friends' School,TAS,Independent,Combined,Inner Regional,-42.869285,147.313375
The Hutchins School,TAS,Independent,Combined,Inner Regional,-42.905952,147.330242
The Cottage School,TAS,Independent,Primary,Inner Regional,-42.875405,147.367494
Launceston Christian School,TAS,Independent,Combined,Inner Regional,-41.401842,147.090571
Leighland Christian School,TAS,Independent,Secondary,Outer Regional,-41.153547,146.195067
North West Christian School,TAS,Independent,Combined,Outer Regional,-41.123571,146.080384
St Michael's Collegiate School,TAS,Independent,Combined,Inner Regional,-42.888185,147.323435
Scotch Oakburn College,TAS,Independent,Combined,Inner Regional,-41.449213,147.168873
John Paul II Catholic School,TAS,Catholic,Primary,Inner Regional,-42.8945,147.447
The Launceston Preparatory School,TAS,Independent,Primary,Inner Regional,-41.4374,147.158
Eastside Lutheran College,TAS,Independent,Combined,Inner Regional,-42.851645,147.383845
St Thomas More's Catholic School,TAS,Catholic,Primary,Inner Regional,-41.44512,147.157534
St Paul's Catholic School,TAS,Catholic,Primary,Inner Regional,-42.737339,147.247605
Circular Head Christian School,TAS,Independent,Combined,Outer Regional,-40.8497,145.118
Southern Christian College,TAS,Independent,Combined,Inner Regional,-42.990905,147.307777
Brooks High School,TAS,Government,Secondary,Inner Regional,-41.37813391,147.1213599
Flinders Island District High School,TAS,Government,Combined,Very Remote,-40.11254151,148.0348628
Lilydale District School,TAS,Government,Combined,Outer Regional,-41.25251745,147.2159829
Ravenswood Heights Primary School,TAS,Government,Primary,Inner Regional,-41.41878768,147.1753683
Scottsdale High School,TAS,Government,Secondary,Outer Regional,-41.1546,147.51
Parklands High School,TAS,Government,Secondary,Outer Regional,-41.07905504,145.90176
Reece High School,TAS,Government,Secondary,Outer Regional,-41.189,146.352
Ulverstone Secondary College,TAS,Government,Secondary,Outer Regional,-41.16325954,146.1708234
Wynyard High School,TAS,Government,Secondary,Outer Regional,-40.98627358,145.7176428
Cosgrove High School,TAS,Government,Secondary,Inner Regional,-42.83650615,147.283187
Dover District School,TAS,Government,Combined,Outer Regional,-43.31008295,147.0130337
Geeveston Primary School,TAS,Government,Primary,Outer Regional,-43.16224412,146.9221263
Huonville High School,TAS,Government,Secondary,Outer Regional,-43.02374508,147.0469488
Bayview Secondary College,TAS,Government,Secondary,Inner Regional,-42.89719843,147.4450042
Bothwell District High School,TAS,Government,Combined,Outer Regional,-42.38402831,147.0157196
Deloraine High School,TAS,Government,Secondary,Outer Regional,-41.52974888,146.6601803
Glenora District School,TAS,Government,Combined,Outer Regional,-42.69690112,146.8894489
New Norfolk High School,TAS,Government,Secondary,Inner Regional,-42.78854201,147.061232
Oatlands District High School,TAS,Government,Combined,Outer Regional,-42.30055552,147.3708017
Ouse District School,TAS,Government,Primary,Outer Regional,-42.48152312,146.707466
Rosebery District School,TAS,Government,Combined,Remote,-41.77912684,145.5424723
St Helens District High School,TAS,Government,Combined,Outer Regional,-41.32453944,148.2462974
St Marys District School,TAS,Government,Combined,Outer Regional,-41.58478994,148.1893989
Triabunna District School,TAS,Government,Combined,Outer Regional,-42.50742508,147.9110679
Burnie High School,TAS,Government,Secondary,Outer Regional,-41.0415376,145.8664653
Campbell Town District High School,TAS,Government,Combined,Outer Regional,-41.92446399,147.4909676
Cressy District High School,TAS,Government,Combined,Outer Regional,-41.69093755,147.0771548
Dunalley Primary School,TAS,Government,Primary,Outer Regional,-42.88518675,147.8121586
Exeter High School,TAS,Government,Secondary,Outer Regional,-41.30062736,146.9575218
King Island District High School,TAS,Government,Combined,Very Remote,-39.92665469,143.8559413
Kingston High School,TAS,Government,Secondary,Inner Regional,-42.97371542,147.3081315
Kings Meadows High School,TAS,Government,Secondary,Inner Regional,-41.47386659,147.1595691
Prospect High School,TAS,Government,Secondary,Inner Regional,-41.47580035,147.1309319
Riverside High School,TAS,Government,Secondary,Inner Regional,-41.40905097,147.099558
Smithton High School,TAS,Government,Secondary,Outer Regional,-40.83816677,145.1164488
Sorell School,TAS,Government,Combined,Inner Regional,-42.78592321,147.5606233
Taroona High School,TAS,Government,Secondary,Inner Regional,-42.94341,147.3559
Tasman District School,TAS,Government,Combined,Outer Regional,-43.09833639,147.7470655
Winnaleah District High School,TAS,Government,Combined,Outer Regional,-41.096531,147.822868
Woodbridge School,TAS,Government,Combined,Outer Regional,-43.164652,147.239683
Yolla District School,TAS,Government,Combined,Outer Regional,-41.12266948,145.7200995
North West Support School,TAS,Government,Combined,Outer Regional,-41.072282,145.893098
Invermay Primary School,TAS,Government,Primary,Inner Regional,-41.42163515,147.131384
Mowbray Heights Primary School,TAS,Government,Primary,Inner Regional,-41.40275864,147.133413
Rose Bay High School,TAS,Government,Secondary,Inner Regional,-42.86154099,147.3589167
Queechy High School,TAS,Government,Secondary,Inner Regional,-41.45195332,147.176075
Devonport High School,TAS,Government,Secondary,Outer Regional,-41.17795098,146.3487704
Sacred Heart Catholic School,TAS,Catholic,Primary,Inner Regional,-41.445,147.133337
Albuera Street Primary School,TAS,Government,Primary,Inner Regional,-42.89123278,147.325883
Campbell Street Primary School,TAS,Government,Primary,Inner Regional,-42.87254263,147.3226832
Goulburn Street Primary School,TAS,Government,Primary,Inner Regional,-42.88779991,147.316925
Lansdowne Crescent Primary School,TAS,Government,Primary,Inner Regional,-42.882125,147.30871
Mount Stuart Primary School,TAS,Government,Primary,Inner Regional,-42.87507847,147.2990696
South Hobart Primary School,TAS,Government,Primary,Inner Regional,-42.891817,147.309568
Princes Street Primary School,TAS,Government,Primary,Inner Regional,-42.89924147,147.3184045
Waimea Heights Primary School,TAS,Government,Primary,Inner Regional,-42.90892029,147.3369141
Taroona Primary School,TAS,Government,Primary,Inner Regional,-42.94315177,147.3527989
Mount Nelson Primary School,TAS,Government,Primary,Inner Regional,-42.91290931,147.3223708
Lenah Valley Primary School,TAS,Government,Primary,Inner Regional,-42.860997,147.289568
New Town Primary School,TAS,Government,Primary,Inner Regional,-42.85748163,147.3000124
Bowen Road Primary School,TAS,Government,Primary,Inner Regional,-42.84736447,147.3076373
Goodwood Primary School,TAS,Government,Primary,Inner Regional,-42.83224516,147.2925531
Moonah Primary School,TAS,Government,Primary,Inner Regional,-42.83809219,147.2964634
Springfield Gardens Primary School,TAS,Government,Primary,Inner Regional,-42.84764764,147.2759479
Rosetta Primary School,TAS,Government,Primary,Inner Regional,-42.82210911,147.2573008
Collinsvale Primary School,TAS,Government,Primary,Inner Regional,-42.83667338,147.1983997
Lindisfarne North Primary School,TAS,Government,Primary,Inner Regional,-42.838657,147.350274
Lindisfarne Primary School,TAS,Government,Primary,Inner Regional,-42.85201252,147.3637244
Risdon Vale Primary School,TAS,Government,Primary,Inner Regional,-42.81259813,147.3532966
Bellerive Primary School,TAS,Government,Primary,Inner Regional,-42.87227607,147.3701106
Clarence High School,TAS,Government,Secondary,Inner Regional,-42.877901,147.3892403
Howrah Primary School,TAS,Government,Primary,Inner Regional,-42.88107919,147.4021105
Montagu Bay Primary School,TAS,Government,Primary,Inner Regional,-42.86449013,147.3522335
Warrane Primary School,TAS,Government,Primary,Inner Regional,-42.86122275,147.382622
Clarendon Vale Primary School,TAS,Government,Primary,Inner Regional,-42.88738509,147.4443949
Rokeby Primary School,TAS,Government,Primary,Inner Regional,-42.89897973,147.4337238
Lauderdale Primary School,TAS,Government,Primary,Inner Regional,-42.905072,147.47854
South Arm Primary School,TAS,Government,Primary,Outer Regional,-43.02586187,147.420197
Richmond Primary School,TAS,Government,Primary,Outer Regional,-42.73928054,147.4379846
Campania District School,TAS,Government,Combined,Outer Regional,-42.66623964,147.4230936
Glen Huon Primary School,TAS,Government,Primary,Outer Regional,-43.02813851,146.962378
Huonville Primary School,TAS,Government,Primary,Outer Regional,-43.02374508,147.0469488
Cygnet Primary School,TAS,Government,Primary,Outer Regional,-43.15825931,147.0722396
Franklin Primary School,TAS,Government,Primary,Outer Regional,-43.08553093,147.0118557
Kingston Primary School,TAS,Government,Primary,Inner Regional,-42.97934878,147.3099185
Blackmans Bay Primary School,TAS,Government,Primary,Inner Regional,-42.99699352,147.3212642
Margate Primary School,TAS,Government,Primary,Inner Regional,-43.028852,147.262095
Snug Primary School,TAS,Government,Primary,Inner Regional,-43.06533258,147.2542694
Bruny Island District School,TAS,Government,Primary,Outer Regional,-43.31756067,147.2460519
Cambridge Primary School,TAS,Government,Primary,Inner Regional,-42.83620708,147.4418246
Evandale Primary School,TAS,Government,Primary,Inner Regional,-41.567519,147.249153
Bicheno Primary School,TAS,Government,Primary,Remote,-41.87237979,148.3057023
East Launceston Primary School,TAS,Government,Primary,Inner Regional,-41.44202283,147.1520445
Glen Dhu Primary School,TAS,Government,Primary,Inner Regional,-41.45590244,147.1439905
Norwood Primary School,TAS,Government,Primary,Inner Regional,-41.46210661,147.1742756
Punchbowl Primary School,TAS,Government,Primary,Inner Regional,-41.45252801,147.1653299
Riverside Primary School,TAS,Government,Primary,Inner Regional,-41.41277009,147.1006329
St Leonards Primary School,TAS,Government,Primary,Inner Regional,-41.45970425,147.2003125
Summerdale Primary School,TAS,Government,Primary,Inner Regional,-41.46827258,147.1297071
Trevallyn Primary School,TAS,Government,Primary,Inner Regional,-41.43814374,147.1146624
Waverley Primary School,TAS,Government,Primary,Inner Regional,-41.43207254,147.1901325
West Launceston Primary School,TAS,Government,Primary,Inner Regional,-41.44906993,147.1284837
Youngtown Primary School,TAS,Government,Primary,Inner Regional,-41.482606,147.163844
Port Dalrymple School,TAS,Government,Combined,Outer Regional,-41.09971856,146.8281151
South George Town Primary School,TAS,Government,Primary,Outer Regional,-41.11362094,146.8336332
Bridport Primary School,TAS,Government,Primary,Outer Regional,-41.00162041,147.3893709
Ringarooma Primary School,TAS,Government,Primary,Outer Regional,-41.24228469,147.7332395
Scottsdale Primary School,TAS,Government,Primary,Outer Regional,-41.16034658,147.5066538
Hagley Farm Primary School,TAS,Government,Primary,Outer Regional,-41.52669149,146.9034023
Orford Primary School,TAS,Government,Primary,Outer Regional,-42.56331933,147.8738424
Swansea Primary School,TAS,Government,Primary,Remote,-42.12236781,148.073201
Bracknell Primary School,TAS,Government,Primary,Outer Regional,-41.65243695,146.9335869
Perth Primary School,TAS,Government,Primary,Inner Regional,-41.57317837,147.1743711
Longford Primary School,TAS,Government,Primary,Inner Regional,-41.59593583,147.1169432
Westbury Primary School,TAS,Government,Primary,Outer Regional,-41.53170299,146.838051
Deloraine Primary School,TAS,Government,Primary,Outer Regional,-41.52867221,146.6627154
Mole Creek Primary School,TAS,Government,Primary,Outer Regional,-41.55845075,146.405549
Latrobe Primary School,TAS,Government,Primary,Outer Regional,-41.23961898,146.4160131
Sheffield School,TAS,Government,Combined,Outer Regional,-41.38460175,146.3245746
Latrobe High School,TAS,Government,Secondary,Outer Regional,-41.23650373,146.4252532
Sassafras Primary School,TAS,Government,Primary,Outer Regional,-41.2871478,146.5033138
Devonport Primary School,TAS,Government,Primary,Outer Regional,-41.18023239,146.3574016
East Devonport Primary School,TAS,Government,Primary,Outer Regional,-41.17792747,146.3721147
Forth Primary School,TAS,Government,Primary,Outer Regional,-41.19291547,146.2485823
Hillcrest Primary School,TAS,Government,Primary,Outer Regional,-41.1870573,146.3331589
Miandetta Primary School,TAS,Government,Primary,Outer Regional,-41.1954,146.349
Nixon Street Primary School,TAS,Government,Primary,Outer Regional,-41.1729974,146.3382823
Spreyton Primary School,TAS,Government,Primary,Outer Regional,-41.21202919,146.3458559
Wilmot Primary School,TAS,Government,Primary,Outer Regional,-41.38699434,146.1753679
East Ulverstone Primary School,TAS,Government,Primary,Outer Regional,-41.15452656,146.1917543
Sprent Primary School,TAS,Government,Primary,Outer Regional,-41.26294106,146.1594276
Ulverstone Primary School,TAS,Government,Primary,Outer Regional,-41.16076112,146.1641443
West Ulverstone Primary School,TAS,Government,Primary,Outer Regional,-41.14816145,146.1595138
Riana Primary School,TAS,Government,Primary,Outer Regional,-41.20249009,145.9989877
Burnie Primary School,TAS,Government,Primary,Outer Regional,-41.0584334,145.8853029
Cooee Primary School,TAS,Government,Primary,Outer Regional,-41.0415376,145.8664653
Montello Primary School,TAS,Government,Primary,Outer Regional,-41.05990677,145.8985795
Boat Harbour Primary School,TAS,Government,Primary,Outer Regional,-40.94562609,145.6353569
Havenview Primary School,TAS,Government,Primary,Outer Regional,-41.08386446,145.9111684
Natone Primary School,TAS,Government,Primary,Outer Regional,-41.17012891,145.9217735
Ridgley Primary School,TAS,Government,Primary,Outer Regional,-41.13997773,145.8377718
Table Cape Primary School,TAS,Government,Primary,Outer Regional,-40.98316517,145.7148662
Edith Creek Primary School,TAS,Government,Primary,Outer Regional,-40.97052056,145.0934073
Forest Primary School,TAS,Government,Primary,Outer Regional,-40.84838284,145.2494153
Redpa Primary School,TAS,Government,Primary,Remote,-40.932925,144.761834
Smithton Primary School,TAS,Government,Primary,Outer Regional,-40.84946046,145.1160526
Stanley Primary School,TAS,Government,Primary,Outer Regional,-40.75956582,145.2909851
Brighton Primary School,TAS,Government,Primary,Inner Regional,-42.69909438,147.258458
Bagdad Primary School,TAS,Government,Primary,Outer Regional,-42.62489064,147.2229568
Kempton Primary School,TAS,Government,Primary,Outer Regional,-42.5311126,147.1991345
Fairview Primary School,TAS,Government,Primary,Inner Regional,-42.77432027,147.0509224
New Norfolk Primary School,TAS,Government,Primary,Inner Regional,-42.77900115,147.0636691
Molesworth Primary School,TAS,Government,Primary,Inner Regional,-42.80404026,147.1567787
Westerway Primary School,TAS,Government,Primary,Outer Regional,-42.67762923,146.7873511
Strahan Primary School,TAS,Government,Primary,Remote,-42.15342033,145.320347
Zeehan Primary School,TAS,Government,Primary,Remote,-41.88801157,145.3395928
Tarremah Steiner School,TAS,Independent,Combined,Inner Regional,-42.997854,147.289813
Australian Christian College - Burnie,TAS,Independent,Combined,Outer Regional,-41.0444,145.81
MacKillop Catholic College,TAS,Catholic,Secondary,Inner Regional,-42.857456,147.400625
Devonport Christian School,TAS,Independent,Primary,Outer Regional,-41.18196,146.3234
St Finn Barr's Catholic Primary School,TAS,Catholic,Primary,Inner Regional,-41.415572,147.132923
Giant Steps Tasmania,TAS,Independent,Combined,Outer Regional,-41.5225,146.652
Dominic College,TAS,Catholic,Combined,Inner Regional,-42.848604,147.257738
Mount Carmel College,TAS,Catholic,Combined,Inner Regional,-42.901946,147.33217
Sacred Heart College,TAS,Catholic,Combined,Inner Regional,-42.86218,147.304645
Dodges Ferry Primary School,TAS,Government,Primary,Inner Regional,-42.84870944,147.6247467
Exeter Primary School,TAS,Government,Primary,Outer Regional,-41.29885674,146.956374
Illawarra Primary School,TAS,Government,Primary,Inner Regional,-43.0086344,147.3193779
OneSchool Global - Hobart Campus,TAS,Independent,Combined,Inner Regional,-42.797041,147.262784
Beaconsfield Primary School,TAS,Government,Primary,Outer Regional,-41.20319085,146.8219466
Newstead Christian School,TAS,Independent,Combined,Inner Regional,-41.438287,147.165078
St Virgil's College,TAS,Catholic,Combined,Inner Regional,-42.774178,147.251698
Peregrine,TAS,Independent,Primary,Outer Regional,-43.141636,147.152841
Mountain Heights School,TAS,Government,Combined,Remote,-42.09410938,145.549574
St Brendan-Shaw College,TAS,Catholic,Secondary,Outer Regional,-41.167167,146.342373
St Patrick's College,TAS,Catholic,Secondary,Inner Regional,-41.473557,147.127444
Marist Regional College,TAS,Catholic,Secondary,Outer Regional,-41.04803,145.886284
Ashley School,TAS,Government,Secondary,Outer Regional,-41.52487563,146.7043178
Cape Barren Island School,TAS,Government,Combined,Very Remote,-40.369305,148.024571
Southern Support School,TAS,Government,Combined,Inner Regional,-42.880164,147.401683
Calvin Christian School,TAS,Independent,Primary,Inner Regional,-42.97993089,147.3050204
Sunrise Christian School Fullarton,SA,Independent,Primary,Major Cities,-34.954499,138.621828
Northern Support School,TAS,Government,Combined,Inner Regional,-41.423615,147.172268
Ngaanyatjarra Lands School,WA,Government,Combined,Very Remote,-25.28353,127.54272
Launceston Church Grammar School - Junior Campus,TAS,Independent,Primary,Inner Regional,-41.433996,147.149315
Scotch Oakburn College - Elphin Campus,TAS,Independent,Primary,Inner Regional,-41.434589,147.152685
Leighland Christian School - Burnie Campus,TAS,Independent,Primary,Outer Regional,-41.069016,145.935864
St Virgil's College - St Virgil's Junior School,TAS,Catholic,Primary,Inner Regional,-42.882906,147.317603
OneSchool Global - Launceston Campus,TAS,Independent,Combined,Inner Regional,-41.451375,147.160437
Australian Christian College - Launceston,TAS,Independent,Combined,Inner Regional,-41.3858,147.127401
Emmanuel Christian School,TAS,Independent,Combined,Inner Regional,-42.90075556,147.4385796
Northern Christian School,TAS,Independent,Primary,Inner Regional,-42.730637,147.223489
Channel Christian School,TAS,Independent,Primary,Inner Regional,-43.027034,147.271393
Australian Christian College - Hobart,TAS,Independent,Combined,Inner Regional,-42.839719,147.352713
Saint Mary MacKillop College Albury,NSW,Independent,Combined,Inner Regional,-35.902879,146.826712
St Dominic Savio School,NSW,Independent,Primary,Major Cities,-33.950985,151.149577
Saint Mary MacKillop Colleges Limited,NSW,Independent,Combined,Inner Regional,-35.12896698,147.3479814
Kurnai College - University Campus,VIC,Government,Secondary,Inner Regional,-38.30939,146.424883
St Philomena School,QLD,Independent,Combined,Major Cities,-27.718998,153.08414
Darkan Primary School,WA,Government,Primary,Outer Regional,-33.33590866,116.7331568
School Of Special Educational Needs: Medical And Mental Health,WA,Government,Combined,Major Cities,-31.969335,115.817205
Sir David Brand School,WA,Government,Combined,Major Cities,-31.9123745,115.8596954
Divine Mercy College,WA,Independent,Combined,Major Cities,-32.123981,115.82463
Rehoboth Christian College - Wilson Campus,WA,Independent,Primary,Major Cities,-32.01355,115.9141
Swan Christian College - Junior School Campus,WA,Independent,Primary,Major Cities,-31.858097,116.012437
Port Neill Primary School,SA,Government,Primary,Remote,-34.11700739,136.3427703
Thebarton Senior College,SA,Government,Secondary,Major Cities,-34.917275,138.562772
Kangaroo Island Community Education - Penneshaw Campus,SA,Government,Combined,Remote,-35.720872,137.931836
OneSchool Global SA - Mount Gambier Campus,SA,Independent,Combined,Outer Regional,-37.816856,140.796901
Sunrise Christian School Marion,SA,Independent,Combined,Major Cities,-35.016798,138.557341
O'Connor Cooperative School,ACT,Government,Primary,Major Cities,-35.261153,149.120241
Erindale College,ACT,Government,Secondary,Major Cities,-35.403049,149.096551
Hawker College,ACT,Government,Secondary,Major Cities,-35.245578,149.032519
Narrabundah College,ACT,Government,Secondary,Major Cities,-35.335969,149.147097
Southern Cross Early Childhood School,ACT,Government,Primary,Major Cities,-35.2328,149.0384
Lyons Early Childhood School,ACT,Government,Primary,Major Cities,-35.341633,149.076243
Narrabundah Early Childhood School,ACT,Government,Primary,Major Cities,-35.329016,149.150698
Caroline Chisholm School,ACT,Government,Secondary,Major Cities,-35.4182,149.122
Isabella Plains Early Childhood School,ACT,Government,Primary,Major Cities,-35.428716,149.089497
The Canberra College,ACT,Government,Secondary,Major Cities,-35.3404,149.0883
St Mary MacKillop College - Wanniassa Campus,ACT,Catholic,Secondary,Major Cities,-35.4053,149.091
Daramalan College,ACT,Independent,Secondary,Major Cities,-35.2535,149.1387
Marist College Canberra,ACT,Independent,Combined,Major Cities,-35.3603,149.088
St Edmund's College Canberra,ACT,Independent,Combined,Major Cities,-35.323315,149.144412
Darwin High School,NT,Government,Secondary,Outer Regional,-12.43893,130.83398
Northern Territory School of Distance Education,NT,Government,Secondary,Outer Regional,-12.43964837,130.8339947
Centralian Senior College,NT,Government,Secondary,Remote,-23.6979,133.8953
Kiana School,NT,Government,Combined,Very Remote,-17.24244,136.18325
Woolaning School,NT,Government,Combined,Remote,-13.098819,130.654431
Araluen Christian College,NT,Independent,Combined,Remote,-23.70771,133.85232
Holy Family Catholic Primary School,NT,Catholic,Primary,Outer Regional,-12.39367,130.91166
Holy Spirit Catholic Primary School,NT,Catholic,Primary,Outer Regional,-12.373488,130.88543
O'Loughlin Catholic College,NT,Catholic,Secondary,Outer Regional,-12.39337,130.91045
Our Lady of the Sacred Heart Catholic College,NT,Catholic,Combined,Remote,-23.707543,133.876955
Sacred Heart Catholic Primary School,NT,Catholic,Primary,Outer Regional,-12.49588,130.97937
St Francis of Assisi Catholic Primary School,NT,Catholic,Primary,Outer Regional,-12.581199,131.099073
St John's Catholic College,NT,Catholic,Secondary,Outer Regional,-12.440794,130.837954
St Joseph's Catholic College,NT,Catholic,Combined,Remote,-14.46194,132.27593
St Mary's Catholic Primary School,NT,Catholic,Primary,Outer Regional,-12.45935,130.83883
St Paul's Catholic Primary School,NT,Catholic,Primary,Outer Regional,-12.38695,130.85821
Canberra Grammar School - Northside Infants Campus,ACT,Independent,Primary,Major Cities,-35.2853,149.1471
Muirden Senior College,SA,Independent,Secondary,Major Cities,-34.933349,138.600554
Sacred Heart College - Marcellin Campus,SA,Catholic,Combined,Major Cities,-34.996682,138.521367
Kinma School,NSW,Independent,Primary,Major Cities,-33.686607,151.216969
Knox Grammar School,NSW,Independent,Combined,Major Cities,-33.723114,151.119418
Moriah College,NSW,Independent,Combined,Major Cities,-33.899355,151.244827
St Francis Xavier's College,NSW,Catholic,Secondary,Major Cities,-32.927166,151.753714
Holy Spirit Infants School,NSW,Catholic,Primary,Major Cities,-32.81091,151.443237
St Joseph's Catholic Primary School Como - Oyster Bay,NSW,Catholic,Primary,Major Cities,-34.00948387,151.0727851
St Therese's Community Parish School,NSW,Catholic,Primary,Very Remote,-31.559128,143.379376
Highfields Preparatory and Kindergarten School,NSW,Independent,Primary,Major Cities,-33.774982,151.163657
Odyssey College,NSW,Independent,Secondary,Major Cities,-34.034379,150.813818
Coffs Harbour Christian Community School,NSW,Independent,Combined,Inner Regional,-30.378228,153.057112
Learning Co-Operative School,VIC,Independent,Primary,Major Cities,-37.62939233,145.2133347
Mt Maria College,QLD,Catholic,Secondary,Major Cities,-27.412361,152.979765
Andale School,VIC,Independent,Combined,Major Cities,-37.805513,145.036044
The Currajong School,VIC,Independent,Combined,Major Cities,-37.875953,145.059946
Mansfield Autism Statewide Services,VIC,Independent,Combined,Outer Regional,-37.060799,146.085858
Rossbourne School,VIC,Independent,Secondary,Major Cities,-37.82304,145.02655
St Paul's College,VIC,Independent,Combined,Major Cities,-37.812213,145.086665
Autism Queensland Education & Therapy Centre,QLD,Independent,Combined,Major Cities,-27.597672,153.043054
Catholic Regional College Sydenham,VIC,Catholic,Secondary,Major Cities,-37.699136,144.771012
Tangara School for Girls,NSW,Independent,Combined,Major Cities,-33.7363676,151.0360805
Heritage Christian School,NSW,Independent,Combined,Inner Regional,-31.429904,152.880468
"St Spyridon College, Junior School Campus",NSW,Independent,Primary,Major Cities,-33.925448,151.224481
Catherine McAuley College,VIC,Catholic,Secondary,Inner Regional,-36.753444,144.273362
Northern Adelaide Senior College,SA,Government,Secondary,Major Cities,-34.71345547,138.6710182
Marden Senior College,SA,Government,Secondary,Major Cities,-34.891954,138.63523
Central Yorke School - Point Pearce Campus,SA,Government,Combined,Outer Regional,-34.427855,137.504945
Williamstown High School,VIC,Government,Secondary,Major Cities,-37.862753,144.895131
Wodonga Senior Secondary College,VIC,Government,Secondary,Inner Regional,-36.12745035,146.8802276
Swinburne Senior Secondary College,VIC,Government,Secondary,Major Cities,-37.823135,145.040821
Essendon Keilor College-Senior Campus,VIC,Government,Secondary,Major Cities,-37.755219,144.901945
Echuca College,VIC,Government,Secondary,Inner Regional,-36.132394,144.732423
Chifley College Senior Campus,NSW,Government,Secondary,Major Cities,-33.769305,150.829855
Moree Secondary College,NSW,Government,Secondary,Outer Regional,-29.48198938,149.8398544
St Marys Senior High School,NSW,Government,Secondary,Major Cities,-33.763119,150.770024
Brisbane Water Secondary College Woy Woy Campus,NSW,Government,Secondary,Major Cities,-33.492687,151.323582
Sydney Secondary College Blackwattle Bay Campus,NSW,Government,Secondary,Major Cities,-33.875142,151.188357
Launceston College,TAS,Government,Secondary,Inner Regional,-41.43992227,147.1328946
Elizabeth College,TAS,Government,Secondary,Inner Regional,-42.87760164,147.3177552
Rosny College,TAS,Government,Secondary,Inner Regional,-42.86932994,147.3653363
Sevenoaks Senior College,WA,Government,Secondary,Major Cities,-32.01209,115.94261
North Lake Senior Campus,WA,Government,Secondary,Major Cities,-32.07413,115.81394
Cyril Jackson Senior Campus,WA,Government,Secondary,Major Cities,-31.91352,115.9427
Canning College,WA,Government,Secondary,Major Cities,-32.01042787,115.8970779
Tallowood Steiner School,NSW,Independent,Primary,Inner Regional,-30.623479,152.849846
Port Lincoln Junior Primary School,SA,Government,Primary,Remote,-34.724303,135.857806
Australia Street Infants School,NSW,Government,Primary,Major Cities,-33.895783,151.177607
Russell Lea Public School,NSW,Government,Primary,Major Cities,-33.861418,151.142572
Taverners Hill Infants School,NSW,Government,Primary,Major Cities,-33.888955,151.157199
Northern Beaches Secondary College Freshwater Senior Campus,NSW,Government,Secondary,Major Cities,-33.768258,151.279779
Yeo Park Infants School,NSW,Government,Primary,Major Cities,-33.90251807,151.1296902
Casuarina Senior College,NT,Government,Secondary,Outer Regional,-12.3836,130.879
Fowler Road School,NSW,Government,Combined,Major Cities,-33.841497,150.975533
Sefton Infants School,NSW,Government,Primary,Major Cities,-33.889237,151.009588
Blackburn English Language School,VIC,Government,Combined,Major Cities,-37.847889,145.148292
Mount Lewis Infants School,NSW,Government,Primary,Major Cities,-33.916084,151.04976
Bankstown South Infants School,NSW,Government,Primary,Major Cities,-33.93123,151.038402
Arncliffe West Infants School,NSW,Government,Primary,Major Cities,-33.931832,151.14516
Bardwell Park Infants School,NSW,Government,Primary,Major Cities,-33.93349921,151.1253783
Hurstville Grove Infants School,NSW,Government,Primary,Major Cities,-33.973128,151.090536
Kotara School,NSW,Government,Combined,Major Cities,-32.94283,151.700379
Callaghan College Jesmond Senior Campus,NSW,Government,Secondary,Major Cities,-32.90150524,151.6962969
New Lambton Heights Infants School,NSW,Government,Primary,Major Cities,-32.934855,151.688027
Nillo Infants School,NSW,Government,Primary,Major Cities,-32.727541,151.559611
Stanford Merthyr Infants School,NSW,Government,Primary,Major Cities,-32.823423,151.495438
Glen Innes West Infants School,NSW,Government,Primary,Inner Regional,-29.738734,151.723882
Penshurst Primary School,VIC,Government,Primary,Outer Regional,-37.87947471,142.2909686
Narrandera East Infants School,NSW,Government,Primary,Outer Regional,-34.75016785,146.564682
Jugiong Public School,NSW,Government,Primary,Outer Regional,-34.820203,148.335447
Mildura Senior College,VIC,Government,Secondary,Outer Regional,-34.19800387,142.1453901
Sofala Public School,NSW,Government,Primary,Inner Regional,-33.082242,149.695172
Goolma Public School,NSW,Government,Primary,Outer Regional,-32.3688,149.26901
Bendigo Senior Secondary College,VIC,Government,Secondary,Inner Regional,-36.7551,144.279586
Myrtleford P-12 College,VIC,Government,Combined,Inner Regional,-36.54888702,146.7261447
Traralgon College,VIC,Government,Secondary,Inner Regional,-38.19142459,146.5194895
Lundavra State School,QLD,Government,Primary,Outer Regional,-28.0702,149.982
Perseverance Primary School,VIC,Government,Primary,Outer Regional,-38.38337735,145.3334052
Kioma State School,QLD,Government,Primary,Remote,-28.217032,149.793707
Bass Coast College,VIC,Government,Secondary,Inner Regional,-38.609807,145.597177
Western Australian College Of Agriculture - Narrogin,WA,Government,Secondary,Outer Regional,-32.973475,117.117756
Western Australian College Of Agriculture - Denmark,WA,Government,Secondary,Outer Regional,-34.95405,117.37456
Western Australian College Of Agriculture - Cunderdin,WA,Government,Secondary,Outer Regional,-31.62698,117.23179
St Lawrence State School,QLD,Government,Primary,Remote,-22.3449,149.5297
St Paul's International College,NSW,Independent,Secondary,Inner Regional,-34.549152,150.36822
Wongutha Christian Aboriginal Parent-Directed School,WA,Independent,Secondary,Remote,-33.65843924,121.8733677
St Monica's College - Davisson Street,VIC,Catholic,Secondary,Major Cities,-37.65082672,145.0300216
St Aloysius College Cronulla,NSW,Catholic,Secondary,Major Cities,-34.055592,151.143328
All Saints College,NSW,Catholic,Secondary,Major Cities,-32.73784,151.559996
Sandringham College,VIC,Government,Secondary,Major Cities,-37.9566838,145.0233484
St Francis Xavier College,VIC,Catholic,Secondary,Major Cities,-38.051525,145.373328
Five Islands Secondary College,NSW,Government,Secondary,Major Cities,-34.48954578,150.9122635
Hallam Secondary College,VIC,Government,Secondary,Major Cities,-38.000383,145.262797
Coffs Harbour Senior College,NSW,Government,Secondary,Inner Regional,-30.330173,153.102656
Collingwood English Language School,VIC,Government,Combined,Major Cities,-37.80784119,144.9847995
Western Australian College Of Agriculture - Morawa,WA,Government,Secondary,Remote,-29.21436066,116.001998
Guilford Young College,TAS,Catholic,Secondary,Inner Regional,-42.835,147.27
Claremont College,TAS,Government,Secondary,Inner Regional,-42.79584451,147.2505513
Field of Mars Environmental Education Centre,NSW,Government,Combined,Major Cities,-33.816092,151.132849
North East Metropolitan Language Development Centre,WA,Government,Primary,Major Cities,-31.8898,115.886
West Coast Language Development Centre,WA,Government,Primary,Major Cities,-31.80498526,115.7605909
Bradfield College,NSW,Government,Secondary,Major Cities,-33.820468,151.188457
Bankstown Senior College,NSW,Government,Secondary,Major Cities,-33.929121,151.022569
Broadmeadows Valley Primary School Meadowfair North Campus,VIC,Government,Primary,Major Cities,-37.68110291,144.9131967
Blacktown Youth College Incorporated,NSW,Independent,Secondary,Major Cities,-33.73750955,150.826239
Wyndham College,NSW,Government,Secondary,Major Cities,-33.726016,150.879709
Arndell School,NSW,Government,Combined,Major Cities,-33.803223,151.125535
Bridge Road School,NSW,Government,Primary,Major Cities,-33.887445,151.175254
Girrakool School,NSW,Government,Secondary,Major Cities,-33.4237,151.296
Dorchester School,NSW,Government,Secondary,Major Cities,-34.088474,150.826331
Kyeemagh Public School,NSW,Government,Primary,Major Cities,-33.949096,151.16223
Putland School,NSW,Government,Secondary,Major Cities,-33.764297,150.750385
Shepherds Park School,NSW,Government,Secondary,Inner Regional,-35.130108,147.344225
Noble Park English Language School,VIC,Government,Combined,Major Cities,-37.971168,145.178166
Youth Education Centre - Goldsborough Road Campus (Cavan),SA,Government,Combined,Major Cities,-34.828265,138.60253
Dandenong Ranges Steiner School - School Road Campus,VIC,Independent,Primary,Major Cities,-37.921023,145.406706
Kintore Street School,NT,Government,Combined,Remote,-14.46361,132.25918
Calrossy Anglican School,NSW,Independent,Secondary,Inner Regional,-31.057196,150.911651
Hinchinbrook Christian School,QLD,Independent,Combined,Outer Regional,-18.638533,146.167661
Great Lakes College Senior Campus,NSW,Government,Secondary,Inner Regional,-32.16141619,152.4953369
NT Christian College,NT,Independent,Secondary,Outer Regional,-12.40795029,130.917266
Georges River College Oatley Senior Campus,NSW,Government,Secondary,Major Cities,-33.977001,151.081391
Australian Science and Mathematics School,SA,Government,Secondary,Major Cities,-35.024872,138.573379
St Patrick's College,QLD,Catholic,Secondary,Inner Regional,-21.138565,149.184476
OneSchool Global WA,WA,Independent,Combined,Major Cities,-32.056546,115.901724
Kwoorabup Community School,WA,Independent,Primary,Outer Regional,-34.97048,117.365606
Barrett Adolescent Centre Special School,QLD,Government,Secondary,Major Cities,-27.5272,153.0029
Cleveland Education and Training Centre,QLD,Government,Combined,Outer Regional,-19.249668,146.784385
Copperfield College,VIC,Government,Secondary,Major Cities,-37.719607,144.772454
Induna School,NSW,Government,Secondary,Inner Regional,-29.722447,152.94639
Sandy Bay Infant School,TAS,Government,Primary,Inner Regional,-42.90961521,147.3493787
Western Australian College Of Agriculture - Harvey,WA,Government,Secondary,Inner Regional,-33.129635,115.913733
Kamaruka,VIC,Independent,Combined,Major Cities,-37.83761581,144.9976787
Barrenjoey Montessori School,NSW,Independent,Primary,Major Cities,-33.631238,151.334001
Western English Language School,VIC,Government,Combined,Major Cities,-37.790995,144.8540362
Mindarie Senior College,WA,Government,Secondary,Major Cities,-31.67751,115.70685
University Senior College at Adelaide University - Jordan Campus,SA,Independent,Secondary,Major Cities,-34.917855,138.601817
Hubbard's School,QLD,Independent,Secondary,Major Cities,-27.47117,153.006528
John Tonkin College Education Support Centre,WA,Government,Secondary,Major Cities,-32.51774,115.75531
Cyril Jackson Senior Campus Education Support Centre,WA,Government,Secondary,Major Cities,-31.91352,115.9427
Centennial Park School,NSW,Government,Secondary,Major Cities,-33.910564,151.243184
Dubbo College Senior Campus,NSW,Government,Secondary,Inner Regional,-32.233022,148.625549
Lavalla Catholic College,VIC,Catholic,Secondary,Inner Regional,-38.20088627,146.5141957
Eagleby Learning Centre - Centre for Continuing Secondary Education,QLD,Government,Secondary,Major Cities,-27.694569,153.212609
Wakefield School,NSW,Government,Secondary,Major Cities,-32.956712,151.56443
Verona School,NSW,Government,Combined,Major Cities,-33.868235,150.9709
Palm Avenue School,NSW,Government,Combined,Major Cities,-33.800397,150.986561
Ozford College,VIC,Independent,Secondary,Major Cities,-37.8105641,144.9685965
Spinifex State College - Mount Isa - Senior Campus,QLD,Government,Secondary,Remote,-20.7223,139.51
Al Sadiq College Yagoona Campus,NSW,Independent,Primary,Major Cities,-33.904146,151.023998
Lakes Grammar - An Anglican School,NSW,Independent,Combined,Major Cities,-33.2423897,151.4444111
Alesco Secondary College,NSW,Independent,Secondary,Major Cities,-32.91413575,151.6585199
Lincoln School,NSW,Government,Secondary,Inner Regional,-32.2313,148.5784
Sale College,VIC,Government,Secondary,Inner Regional,-38.108921,147.068006
Geraldton Senior High School,WA,Government,Secondary,Outer Regional,-28.77976937,114.6115184
CathWest Innovation College,NSW,Catholic,Secondary,Major Cities,-33.770003,150.827861
Royal Far West School,NSW,Government,Combined,Major Cities,-33.798519,151.288476
Holmes Grammar School,VIC,Independent,Secondary,Major Cities,-37.810302,144.972271
Aurora School,VIC,Government,Primary,Major Cities,-37.84017872,145.1507912
Stewart House School,NSW,Government,Combined,Major Cities,-33.77349,151.29131
Red Hill Environmental Education Centre,NSW,Government,Combined,Outer Regional,-32.36456021,149.5357054
Thalgarrah Environmental Education Centre,NSW,Government,Combined,Outer Regional,-30.447933,151.82475
Kamay Botany Bay Environmental Education Centre,NSW,Government,Combined,Major Cities,-34.003706,151.221169
Bournda Environmental Education Centre,NSW,Government,Combined,Outer Regional,-36.79097905,149.9274607
Brewongle Environmental Education Centre,NSW,Government,Combined,Inner Regional,-33.48167,150.891511
Camden Park Environmental Education Centre,NSW,Government,Combined,Major Cities,-34.120004,150.709685
Cascade Environmental Education Centre,NSW,Government,Combined,Outer Regional,-30.233457,152.789665
Dorroughby Environmental Education Centre,NSW,Government,Combined,Inner Regional,-28.656556,153.35174
Georges River Environmental Education Centre,NSW,Government,Combined,Major Cities,-33.90847984,150.9610155
Gibberagong Environmental Education Centre,NSW,Government,Combined,Major Cities,-33.660493,151.158508
Illawarra Environmental Education Centre,NSW,Government,Combined,Major Cities,-34.602314,150.86083
Longneck Lagoon Environmental Education Centre,NSW,Government,Combined,Inner Regional,-33.57875052,150.8941374
Observatory Hill Environmental Education Centre,NSW,Government,Combined,Major Cities,-33.859395,151.207257
Penrith Lakes Environmental Education Centre,NSW,Government,Combined,Major Cities,-33.727214,150.683135
Riverina Environmental Education Centre,NSW,Government,Combined,Inner Regional,-35.129422,147.309743
Royal National Park Environmental Education Centre,NSW,Government,Combined,Inner Regional,-34.06396995,151.0576013
Rumbalara Environmental Education Centre,NSW,Government,Combined,Major Cities,-33.428082,151.347464
Wambangalang Environmental Education Centre,NSW,Government,Combined,Outer Regional,-32.48798,148.554792
Warrumbungle National Park Environmental Education Centre,NSW,Government,Combined,Outer Regional,-31.25459,148.981077
Awabakal Environmental Education Centre,NSW,Government,Combined,Major Cities,-32.876107,151.696132
Wooglemai Environmental Education Centre,NSW,Government,Combined,Inner Regional,-34.134567,150.499162
Eastern Goldfields College,WA,Government,Secondary,Outer Regional,-30.7502,121.4752
Queensland Academy for Science Mathematics and Technology,QLD,Government,Secondary,Major Cities,-27.486365,152.978986
Western Cape College,QLD,Government,Combined,Very Remote,-12.626479,141.879926
Spinifex State College - Mount Isa Education and Training Precinct,QLD,Government,Secondary,Remote,-20.73481,139.487333
Roma State College,QLD,Government,Combined,Outer Regional,-26.565995,148.777888
Albert Park Flexible School,QLD,Catholic,Secondary,Major Cities,-27.46615,153.0111
Queensland Children's Hospital School,QLD,Government,Combined,Major Cities,-27.484495,153.0272
Woodberry Learning Centre,NSW,Government,Combined,Major Cities,-32.791554,151.671217
Burnett Youth Learning Centre,QLD,Independent,Secondary,Inner Regional,-25.007844,152.376101
Warakirri College,NSW,Independent,Secondary,Major Cities,-33.873715,150.953882
Coburg High School,VIC,Government,Secondary,Major Cities,-37.740781,144.972778
St Patrick's Technical College,SA,Catholic,Secondary,Major Cities,-34.710863,138.664167
Point Cook Senior Secondary College,VIC,Government,Secondary,Major Cities,-37.886718,144.73282
Queensland Academy for Creative Industries,QLD,Government,Secondary,Major Cities,-27.453095,153.01439
Tagai State College,QLD,Government,Combined,Very Remote,-10.581798,142.221208
Tec-NQ,QLD,Independent,Secondary,Outer Regional,-19.32244044,146.7643507
Hunter Trade College,NSW,Independent,Secondary,Major Cities,-32.73933618,151.5382704
Newman Senior Technical College,NSW,Catholic,Secondary,Inner Regional,-31.4281,152.873
NSW School of Languages,NSW,Government,Secondary,Major Cities,-33.895078,151.1509672
Australian Trade College North Brisbane,QLD,Independent,Secondary,Major Cities,-27.20489,153.110154
Cardijn College - Marcellin Campus,SA,Catholic,Secondary,Major Cities,-35.137418,138.491643
St George Hospital School,NSW,Government,Combined,Major Cities,-33.96671,151.13399
Royal Prince Alfred Hospital School,NSW,Government,Combined,Major Cities,-33.889314,151.180245
Royal North Shore Hospital School,NSW,Government,Combined,Major Cities,-33.821077,151.191602
Sydney Childrens Hospital School,NSW,Government,Combined,Major Cities,-33.919053,151.239067
Sutherland Hospital School,NSW,Government,Combined,Major Cities,-34.038034,151.114597
Bankstown Hospital School,NSW,Government,Combined,Major Cities,-33.933446,151.021069
Illawarra Hospital School,NSW,Government,Combined,Major Cities,-34.424793,150.883935
John Hunter Hospital School,NSW,Government,Combined,Major Cities,-32.921378,151.697398
The Childrens Hospital School,NSW,Government,Combined,Major Cities,-33.802243,150.991834
Liverpool Hospital School,NSW,Government,Combined,Major Cities,-33.91994846,150.9302521
QCHS - Royal Brisbane and ACT for Kids Campus,QLD,Government,Secondary,Major Cities,-27.449315,153.025819
Holy Cross College,WA,Catholic,Combined,Major Cities,-31.771347,115.974141
Queensland Academy for Health Sciences,QLD,Government,Secondary,Major Cities,-27.967002,153.382835
EdSpace,VIC,Independent,Combined,Inner Regional,-36.547667,145.984303
Sydney Adventist School - Auburn,NSW,Independent,Primary,Major Cities,-33.847952,151.03319
Deutsche Schule Melbourne,VIC,Independent,Primary,Major Cities,-37.779109,144.982915
Pacific Coast Christian School,NSW,Independent,Combined,Major Cities,-28.1965,153.521
John Monash Science School,VIC,Government,Secondary,Major Cities,-37.91419502,145.1287826
Manea Senior College,WA,Government,Secondary,Inner Regional,-33.36571467,115.6542372
Kingston Primary School,WA,Government,Primary,Inner Regional,-33.258956,115.745626
Our Lady of the Angels Primary School,NSW,Catholic,Primary,Major Cities,-33.683958,150.933018
Lindfield Montessori Preschool,NSW,Independent,Primary,Major Cities,-33.777796,151.148368
Banksia Montessori School,WA,Independent,Primary,Major Cities,-31.89253246,115.8685202
ECG Secondary College,VIC,Independent,Secondary,Inner Regional,-38.178231,145.926224
Arlparra School,NT,Government,Combined,Very Remote,-22.087628,134.775047
Notre Dame Catholic Primary School,WA,Catholic,Primary,Major Cities,-31.95636,115.94122
Innisfail State College,QLD,Government,Secondary,Outer Regional,-17.516,146.037
Montrose Bay High School,TAS,Government,Secondary,Inner Regional,-42.82023857,147.2669231
Glenorchy Primary School,TAS,Government,Primary,Inner Regional,-42.83091402,147.2672653
Music Industry College,QLD,Independent,Secondary,Major Cities,-27.45888364,153.0369476
Staines Memorial College,QLD,Independent,Combined,Major Cities,-27.66846899,152.8512875
Cameragal Montessori School,NSW,Independent,Primary,Major Cities,-33.83292019,151.2074348
Karuna Montessori School,NSW,Independent,Primary,Major Cities,-33.7478,151.276
Indie School Albury,NSW,Independent,Secondary,Inner Regional,-36.089672,146.913269
Shepparton ACE Secondary College,VIC,Independent,Secondary,Inner Regional,-36.377568,145.401807
Mapuru Yirralka College,NT,Independent,Combined,Very Remote,-12.252298,135.437467
Farmhouse Montessori School,NSW,Independent,Primary,Major Cities,-33.783352,151.246409
Seymour College,VIC,Government,Combined,Inner Regional,-37.02984234,145.1411167
Geraldton Flexible School,WA,Catholic,Secondary,Outer Regional,-28.76927694,114.6189106
Cranbrook Junior School,NSW,Independent,Primary,Major Cities,-33.873565,151.265237
The Scots College Preparatory School,NSW,Independent,Primary,Major Cities,-33.879915,151.253889
"The Scots College, Glengarry campus",NSW,Independent,Secondary,Inner Regional,-34.728633,150.450948
Trinity Grammar School Preparatory School,NSW,Independent,Primary,Major Cities,-33.881995,151.091679
St George Christian School (Infants),NSW,Independent,Primary,Major Cities,-33.987004,151.133847
"Santa Sabina College, Santa Maria del Monte",NSW,Independent,Primary,Major Cities,-33.87565307,151.092403
St Joseph's Memorial School - Junior Primary Campus,SA,Catholic,Primary,Major Cities,-34.924045,138.645992
Emmaus College - Burwood Campus,VIC,Catholic,Combined,Major Cities,-37.848401,145.096388
Mount Scopus Memorial College - Fink Karp Ivany Campus,VIC,Independent,Combined,Major Cities,-37.899582,145.033683
The King David School - The Rebecca Magid Centre,VIC,Independent,Combined,Major Cities,-37.852779,145.02033
Firbank Grammar School - Second Campus,VIC,Independent,Combined,Major Cities,-37.907862,144.997029
Mel Maria Catholic Primary School - Pater Noster Campus,WA,Catholic,Primary,Major Cities,-32.03869,115.81654
Autism Queensland Education & Therapy Centre - Brighton Campus,QLD,Independent,Combined,Major Cities,-27.293593,153.057296
Ursula Frayne Catholic College - Primary Campus,WA,Catholic,Primary,Major Cities,-31.992455,115.902712
Queenwood Junior School,NSW,Independent,Primary,Major Cities,-33.834768,151.242551
SCECGS Redlands - Murdoch campus,NSW,Independent,Combined,Major Cities,-33.832115,151.227214
St Joseph's School - Secondary Campus,WA,Catholic,Secondary,Inner Regional,-31.655451,116.67271
St Gregory's Primary School,NSW,Catholic,Primary,Major Cities,-35.352722,149.240583
Emmanuel College Warrnambool - Rice Campus,VIC,Catholic,Secondary,Inner Regional,-38.373613,142.481482
"St Edward's Primary School, Robert Street campus",NSW,Catholic,Primary,Inner Regional,-31.109105,150.913635
Calvary Christian College - Carbrook Campus,QLD,Independent,Combined,Major Cities,-27.681722,153.238855
John Septimus Roe Anglican Community School - John Septimus Roe (Beechboro),WA,Independent,Primary,Major Cities,-31.870942,115.922699
St Aloysius' College Junior School,NSW,Independent,Primary,Major Cities,-33.846599,151.213707
Emmaus College - Yaamba Road Campus,QLD,Catholic,Secondary,Inner Regional,-23.347934,150.523416
"Glenaeon Rudolf Steiner School, Castlecrag",NSW,Independent,Primary,Major Cities,-33.802015,151.215235
Waverley College - Waterford Campus,NSW,Independent,Primary,Major Cities,-33.900808,151.257624
Saint Ignatius' College - Junior School Campus,SA,Catholic,Combined,Major Cities,-34.923106,138.639103
Trinity Catholic College (Regents Park Campus),NSW,Catholic,Secondary,Major Cities,-33.878902,151.027758
St George College - Junior Campus,SA,Independent,Combined,Major Cities,-34.922038,138.572809
Guilford Young College - Hobart Campus,TAS,Catholic,Secondary,Inner Regional,-42.882963,147.317521
All Saints Grammar,NSW,Independent,Secondary,Major Cities,-33.92948,151.095317
St Michael's College - Primary Campus,SA,Catholic,Combined,Major Cities,-34.899831,138.550873
De La Salle College - Kinnoull Campus,VIC,Catholic,Combined,Major Cities,-37.855531,145.031927
"Lindisfarne Anglican Grammar School, Junior School",NSW,Independent,Primary,Major Cities,-28.195998,153.533599
Our Lady of the Sacred Heart School Waiben - Hammond Island Campus,QLD,Catholic,Primary,Very Remote,-10.549432,142.210369
"Aspect South East Sydney School, Marrickville",NSW,Independent,Primary,Major Cities,-33.906104,151.162326
Our Lady of the Sacred Heart College - Bath Street Campus,NT,Catholic,Primary,Remote,-23.696568,133.881831
Our Lady of the Sacred Heart College - Sadadeen Road Campus,NT,Catholic,Secondary,Remote,-23.703528,133.896303
Caroline Chisholm Catholic College,VIC,Catholic,Secondary,Major Cities,-37.78627643,144.8496093
Nyangatjatjara College - Imanpa Secondary Campus,NT,Independent,Secondary,Very Remote,-25.129449,132.570809
Nyangatjatjara College - Kaltukatjara Campus (Docker River) Primary Campus,NT,Independent,Primary,Very Remote,-24.87298928,129.0823495
Nyangatjatjara College - Mutitjulu Campus,NT,Independent,Secondary,Very Remote,-25.350771,131.066363
"St Andrews College, Senior Campus",NSW,Catholic,Secondary,Major Cities,-33.748997,150.88958
St John Paul II Catholic College (Nirimba),NSW,Catholic,Secondary,Major Cities,-33.725727,150.88093
St Mary's College - Primary Campus,WA,Catholic,Primary,Remote,-17.95889,122.2207
Newcastle Grammar Park School Campus,NSW,Independent,Primary,Major Cities,-32.935149,151.762356
St Stephen's School - Carramar Campus,WA,Independent,Combined,Major Cities,-31.71725,115.7883
Rawa Community School - Kunawarritji Campus,WA,Independent,Combined,Very Remote,-22.32891446,124.7271954
Columba Catholic College - St Mary's Campus,QLD,Catholic,Primary,Outer Regional,-20.074508,146.26333
St Mark's College - Benedict Campus,SA,Catholic,Combined,Outer Regional,-33.186266,138.01058
Queen of Apostles Primary School - Chuter Street Campus,QLD,Catholic,Primary,Major Cities,-27.393361,153.007764
"Arden Anglican School, Epping campus",NSW,Independent,Secondary,Major Cities,-33.770133,151.084269
Blue Mountains Grammar Preparatory School campus,NSW,Independent,Primary,Major Cities,-33.703699,150.577909
Reddam House,NSW,Independent,Combined,Major Cities,-33.889349,151.252996
"Key College, Chapel School campus",NSW,Independent,Secondary,Major Cities,-33.83737,150.970141
Newman College - Marian Campus,WA,Independent,Primary,Major Cities,-31.933604,115.793697
Clarence Valley Anglican School,NSW,Independent,Combined,Inner Regional,-29.717909,152.967125
OneSchool Global WA - Dalwallinu Campus,WA,Independent,Combined,Remote,-30.28316794,116.6550011
OneSchool Global WA - Gnowangerup Campus,WA,Independent,Combined,Remote,-33.9345,118.0055
OneSchool Global WA - Cunderdin Campus,WA,Independent,Combined,Inner Regional,-31.65610598,116.6900529
Groves Christian College - Upper Primary Campus,QLD,Independent,Combined,Major Cities,-27.660619,153.098456
St Anthony's Catholic College - Secondary Campus,QLD,Catholic,Secondary,Outer Regional,-19.239071,146.653949
Yirara College - Kintore Campus,NT,Independent,Secondary,Very Remote,-23.278159,129.389765
"St Mary and St Mina's Coptic Orthodox College, Rockdale campus",NSW,Independent,Secondary,Major Cities,-33.954501,151.134779
MacKillop Catholic Regional College - St Mary's Campus,VIC,Catholic,Secondary,Inner Regional,-37.953083,144.696836
Trinity College Senior,SA,Independent,Secondary,Major Cities,-34.63298246,138.7344424
Grace Lutheran College - Caboolture Campus,QLD,Independent,Secondary,Major Cities,-27.07467,152.937399
St Hilda's Anglican School for Girls - Chidley Campus,WA,Independent,Primary,Major Cities,-32.02164,115.773184
Berry Street School - Morwell Campus,VIC,Independent,Secondary,Inner Regional,-38.23390488,146.3834857
Mansfield Autism Statewide Services - Dookie Campus Secondary School,VIC,Independent,Combined,Inner Regional,-36.38429597,145.7034089
Mungalla Silver Lining School,QLD,Independent,Secondary,Outer Regional,-18.96667,146.291811
Heritage College - Officer Campus,VIC,Independent,Combined,Major Cities,-38.05435274,145.4167181
Alta-1 College - Malaga Campus,WA,Independent,Secondary,Major Cities,-31.846452,115.878377
Alta-1 College - Huntingdale Campus,WA,Independent,Secondary,Major Cities,-32.078317,115.958024
Samaritan College - Our Lady Help of Christians Campus,SA,Catholic,Combined,Outer Regional,-33.024309,137.528464
Samaritan College - St Teresa's Campus,SA,Catholic,Combined,Outer Regional,-33.03713686,137.584027
Good Shepherd Lutheran College,NT,Independent,Combined,Outer Regional,-12.495852,131.024977
Nazareth Catholic College - Flinders Park Campus,SA,Catholic,Secondary,Major Cities,-34.91180038,138.5467987
The Springfield Anglican College,QLD,Independent,Secondary,Major Cities,-27.670958,152.906511
St Aloysius Catholic College,TAS,Catholic,Combined,Inner Regional,-42.997539,147.289506
Burgmann Anglican School - Forde Campus,ACT,Independent,Combined,Major Cities,-35.1699,149.1472
Blacktown Youth College - Lawson Campus,NSW,Independent,Secondary,Major Cities,-33.71919937,150.4327291
Pinnacle College - Elizabeth East Campus,SA,Independent,Combined,Major Cities,-34.721678,138.677943
Alta-1 College - Joondalup Campus,WA,Independent,Secondary,Major Cities,-31.751271,115.764906
St Joseph's College - Waterford Place Campus,QLD,Catholic,Combined,Major Cities,-27.45733,153.028117
St Margarets Berwick Grammar - Berwick Grammar School,VIC,Independent,Combined,Major Cities,-38.05197059,145.4121756
Prince of Peace Lutheran College - Henderson Road Campus,QLD,Independent,Secondary,Major Cities,-27.38932,152.965379
Mother Teresa School,ACT,Catholic,Primary,Major Cities,-35.19495163,149.1532049
"Cameragal Montessori School, Lavender Bay Campus",NSW,Independent,Primary,Major Cities,-33.842823,151.207838
Alta-1 College - Mullaloo Campus,WA,Independent,Secondary,Major Cities,-31.778835,115.745508
Al Noori Muslim School - Senior Campus,NSW,Independent,Secondary,Major Cities,-33.91116,151.049214
Australian International Islamic College - Carrara Campus,QLD,Independent,Combined,Major Cities,-28.002092,153.356415
Yesodei HaTorah College - Ormond Campus,VIC,Independent,Combined,Major Cities,-37.90435882,145.0385074
Simonds Catholic College - St Brigid's VCE Campus,VIC,Catholic,Secondary,Major Cities,-37.79187419,144.9764854
John Hartley School B-6,SA,Government,Primary,Major Cities,-34.680413,138.673586
Abbotsford Public School,NSW,Government,Primary,Major Cities,-33.852728,151.131206
Annandale Public School,NSW,Government,Primary,Major Cities,-33.885782,151.169599
Annandale North Public School,NSW,Government,Primary,Major Cities,-33.877905,151.171835
Ashbury Public School,NSW,Government,Primary,Major Cities,-33.898833,151.11944
Ashfield Public School,NSW,Government,Primary,Major Cities,-33.889724,151.127902
Banksmeadow Public School,NSW,Government,Primary,Major Cities,-33.953739,151.20661
Bellevue Hill Public School,NSW,Government,Primary,Major Cities,-33.886986,151.259785
Beverly Hills Public School,NSW,Government,Primary,Major Cities,-33.953449,151.085209
Birchgrove Public School,NSW,Government,Primary,Major Cities,-33.853009,151.177045
Blakehurst Public School,NSW,Government,Primary,Major Cities,-33.98298,151.115779
Bondi Beach Public School,NSW,Government,Primary,Major Cities,-33.8883,151.276821
Botany Public School,NSW,Government,Primary,Major Cities,-33.94316,151.194687
Brighton-Le-Sands Public School,NSW,Government,Primary,Major Cities,-33.962357,151.148929
Bronte Public School,NSW,Government,Primary,Major Cities,-33.900605,151.262011
Camdenville Public School,NSW,Government,Primary,Major Cities,-33.906146,151.175741
Canterbury Public School,NSW,Government,Primary,Major Cities,-33.908761,151.122306
Caringbah Public School,NSW,Government,Primary,Major Cities,-34.053433,151.122988
Carlton Public School,NSW,Government,Primary,Major Cities,-33.963496,151.12246
Carlton South Public School,NSW,Government,Primary,Major Cities,-33.973045,151.128287
Clemton Park Public School,NSW,Government,Primary,Major Cities,-33.929708,151.108423
Clovelly Public School,NSW,Government,Primary,Major Cities,-33.907431,151.26028
Como Public School,NSW,Government,Primary,Major Cities,-34.001832,151.069127
Connells Point Public School,NSW,Government,Primary,Major Cities,-33.984689,151.100306
Coogee Public School,NSW,Government,Primary,Major Cities,-33.92049441,151.2500332
Cronulla Public School,NSW,Government,Primary,Major Cities,-34.054077,151.14773
Darlington Public School,NSW,Government,Primary,Major Cities,-33.892638,151.18939
Double Bay Public School,NSW,Government,Primary,Major Cities,-33.874856,151.240894
Drummoyne Public School,NSW,Government,Primary,Major Cities,-33.856073,151.153035
Earlwood Public School,NSW,Government,Primary,Major Cities,-33.928982,151.12238
Engadine Public School,NSW,Government,Primary,Major Cities,-34.06335,151.012431
Five Dock Public School,NSW,Government,Primary,Major Cities,-33.866337,151.126992
Forest Lodge Public School,NSW,Government,Primary,Major Cities,-33.882169,151.181597
Fort Street Public School,NSW,Government,Primary,Major Cities,-33.860427,151.204871
Glenmore Road Public School,NSW,Government,Primary,Major Cities,-33.881385,151.230233
Gymea Bay Public School,NSW,Government,Primary,Major Cities,-34.046905,151.082825
Haberfield Public School,NSW,Government,Primary,Major Cities,-33.879467,151.134002
Heathcote Public School,NSW,Government,Primary,Major Cities,-34.086704,151.007321
Hurstville Public School,NSW,Government,Primary,Major Cities,-33.964695,151.110728
Hurstville South Public School,NSW,Government,Primary,Major Cities,-33.972516,151.099252
Kegworth Public School,NSW,Government,Primary,Major Cities,-33.886514,151.14693
Kensington Public School,NSW,Government,Primary,Major Cities,-33.90993942,151.2250862
Kingsgrove Public School,NSW,Government,Primary,Major Cities,-33.947822,151.10156
Bexley North Public School,NSW,Government,Primary,Major Cities,-33.940838,151.120374
Kogarah Public School,NSW,Government,Primary,Major Cities,-33.962028,151.136618
Kurnell Public School,NSW,Government,Primary,Major Cities,-34.010156,151.203773
La Perouse Public School,NSW,Government,Primary,Major Cities,-33.97951356,151.2351928
Malabar Public School,NSW,Government,Primary,Major Cities,-33.962214,151.248559
Maroubra Bay Public School,NSW,Government,Primary,Major Cities,-33.944236,151.253017
Mascot Public School,NSW,Government,Primary,Major Cities,-33.928577,151.192485
Matraville Public School,NSW,Government,Primary,Major Cities,-33.955064,151.229111
Menai Public School,NSW,Government,Primary,Major Cities,-34.01213,151.006587
Miranda Public School,NSW,Government,Primary,Major Cities,-34.034645,151.097405
Mortdale Public School,NSW,Government,Primary,Major Cities,-33.972901,151.080995
Newtown North Public School,NSW,Government,Primary,Major Cities,-33.891821,151.185392
Nicholson Street Public School,NSW,Government,Primary,Major Cities,-33.856126,151.192725
Oatley Public School,NSW,Government,Primary,Major Cities,-33.983741,151.080332
Orange Grove Public School,NSW,Government,Primary,Major Cities,-33.87239874,151.1578245
Peakhurst Public School,NSW,Government,Primary,Major Cities,-33.95560509,151.061912
Penshurst Public School,NSW,Government,Primary,Major Cities,-33.962636,151.087702
Rainbow Street Public School,NSW,Government,Primary,Major Cities,-33.924647,151.237164
Rockdale Public School,NSW,Government,Primary,Major Cities,-33.952626,151.141681
Rose Bay Public School,NSW,Government,Primary,Major Cities,-33.873011,151.270962
St Peters Public School,NSW,Government,Primary,Major Cities,-33.912993,151.176696
Sans Souci Public School,NSW,Government,Primary,Major Cities,-33.99499,151.12923
Summer Hill Public School,NSW,Government,Primary,Major Cities,-33.895815,151.135853
Sutherland Public School,NSW,Government,Primary,Major Cities,-34.033001,151.059149
Sylvania Public School,NSW,Government,Primary,Major Cities,-34.00804538,151.1119484
Taren Point Public School,NSW,Government,Primary,Major Cities,-34.01808,151.12269
Ultimo Public School,NSW,Government,Primary,Major Cities,-33.876764,151.196861
Undercliffe Public School,NSW,Government,Primary,Major Cities,-33.924086,151.138601
Vaucluse Public School,NSW,Government,Primary,Major Cities,-33.850478,151.281166
Waterfall Public School,NSW,Government,Primary,Inner Regional,-34.137598,150.995977
Athelstane Public School,NSW,Government,Primary,Major Cities,-33.937445,151.138362
Oyster Bay Public School,NSW,Government,Primary,Major Cities,-34.00779,151.080693
Cronulla South Public School,NSW,Government,Primary,Major Cities,-34.06606983,151.1543284
South Coogee Public School,NSW,Government,Primary,Major Cities,-33.933333,151.25409
Woronora River Public School,NSW,Government,Primary,Major Cities,-34.026575,151.041114
Bundeena Public School,NSW,Government,Primary,Inner Regional,-34.086792,151.152422
Bald Face Public School,NSW,Government,Primary,Major Cities,-33.996752,151.106905
Lugarno Public School,NSW,Government,Primary,Major Cities,-33.984956,151.044676
Oatley West Public School,NSW,Government,Primary,Major Cities,-33.979006,151.065459
Sutherland North Public School,NSW,Government,Primary,Major Cities,-34.026785,151.067084
Jannali Public School,NSW,Government,Primary,Major Cities,-34.017945,151.060909
Ramsgate Public School,NSW,Government,Primary,Major Cities,-33.982034,151.144063
Dobroyd Point Public School,NSW,Government,Primary,Major Cities,-33.874416,151.140692
McCallums Hill Public School,NSW,Government,Primary,Major Cities,-33.93471234,151.0850688
Como West Public School,NSW,Government,Primary,Major Cities,-34.004744,151.060505
Pagewood Public School,NSW,Government,Primary,Major Cities,-33.942206,151.214121
Grays Point Public School,NSW,Government,Primary,Major Cities,-34.058656,151.0723
Crown Street Public School,NSW,Government,Primary,Major Cities,-33.882253,151.21522
Tempe Public School,NSW,Government,Primary,Major Cities,-33.920935,151.160994
Marrickville West Public School,NSW,Government,Primary,Major Cities,-33.914468,151.145073
Marrickville Public School,NSW,Government,Primary,Major Cities,-33.90591985,151.1623192
Waverley Public School,NSW,Government,Primary,Major Cities,-33.898174,151.251539
Woolooware Public School,NSW,Government,Primary,Major Cities,-34.045454,151.146233
Caringbah North Public School,NSW,Government,Primary,Major Cities,-34.036574,151.123079
Jannali East Public School,NSW,Government,Primary,Major Cities,-34.019152,151.07232
Peakhurst West Public School,NSW,Government,Primary,Major Cities,-33.96233347,151.0493363
Sylvania Heights Public School,NSW,Government,Primary,Major Cities,-34.012724,151.097344
Penshurst West Public School,NSW,Government,Primary,Major Cities,-33.962115,151.072176
Matraville Soldiers Settlement Public School,NSW,Government,Primary,Major Cities,-33.958039,151.239995
Kirrawee Public School,NSW,Government,Primary,Major Cities,-34.033467,151.07749
Illawong Public School,NSW,Government,Primary,Major Cities,-33.999133,151.042689
Lilli Pilli Public School,NSW,Government,Primary,Major Cities,-34.066592,151.118387
Miranda North Public School,NSW,Government,Primary,Major Cities,-34.031992,151.11273
Yowie Bay Public School,NSW,Government,Primary,Major Cities,-34.047177,151.101683
Erskineville Public School,NSW,Government,Primary,Major Cities,-33.900881,151.186112
Loftus Public School,NSW,Government,Primary,Major Cities,-34.046979,151.048886
Laguna Street Public School,NSW,Government,Primary,Major Cities,-34.046491,151.112737
Randwick Public School,NSW,Government,Primary,Major Cities,-33.910645,151.241714
Burraneer Bay Public School,NSW,Government,Primary,Major Cities,-34.05112081,151.1330721
Engadine West Public School,NSW,Government,Primary,Major Cities,-34.059519,151.002566
Yarrawarrah Public School,NSW,Government,Primary,Major Cities,-34.056574,151.026137
Chifley Public School,NSW,Government,Primary,Major Cities,-33.96595468,151.2423642
Peakhurst South Public School,NSW,Government,Primary,Major Cities,-33.972923,151.055986
Lewisham Public School,NSW,Government,Primary,Major Cities,-33.89773,151.14603
Gymea North Public School,NSW,Government,Primary,Major Cities,-34.026457,151.088321
Marton Public School,NSW,Government,Primary,Major Cities,-34.046492,151.024232
Kareela Public School,NSW,Government,Primary,Major Cities,-34.012894,151.081991
Dulwich Hill Public School,NSW,Government,Primary,Major Cities,-33.906163,151.140287
Petersham Public School,NSW,Government,Primary,Major Cities,-33.895647,151.150175
Bonnet Bay Public School,NSW,Government,Primary,Major Cities,-34.012607,151.056257
Eastlakes Public School,NSW,Government,Primary,Major Cities,-33.928065,151.213836
Bangor Public School,NSW,Government,Primary,Major Cities,-34.019534,151.029118
Wilkins Public School,NSW,Government,Primary,Major Cities,-33.90157415,151.1564807
Plunkett Street Public School,NSW,Government,Primary,Major Cities,-33.870879,151.22024
Tharawal Public School,NSW,Government,Primary,Major Cities,-34.003289,151.025929
Sydney Distance Education Primary School,NSW,Government,Primary,Major Cities,-33.88627,151.212706
Alfords Point Public School,NSW,Government,Primary,Major Cities,-33.992403,151.02399
Canterbury South Public School,NSW,Government,Primary,Major Cities,-33.917776,151.116013
Ferncourt Public School,NSW,Government,Primary,Major Cities,-33.921393,151.151497
Heathcote East Public School,NSW,Government,Primary,Major Cities,-34.082071,151.020259
Yudi Gunyi School,NSW,Government,Combined,Major Cities,-33.904025,151.203108
St George School,NSW,Government,Combined,Major Cities,-33.969055,151.137532
Cook School,NSW,Government,Combined,Major Cities,-34.041709,151.052545
Cairnsfoot School,NSW,Government,Combined,Major Cities,-33.954563,151.152176
Woniora Road School,NSW,Government,Secondary,Major Cities,-33.971003,151.103173
Minerva School,NSW,Government,Combined,Major Cities,-34.034965,151.058739
Wairoa School,NSW,Government,Combined,Major Cities,-33.886632,151.278496
Bates Drive School,NSW,Government,Combined,Major Cities,-34.022243,151.08527
Carinya School,NSW,Government,Combined,Major Cities,-33.973766,151.082222
Edgeware School,NSW,Government,Secondary,Major Cities,-33.913582,151.131342
Arncliffe Public School,NSW,Government,Primary,Major Cities,-33.94054078,151.1464999
Balmain Public School,NSW,Government,Primary,Major Cities,-33.859166,151.183417
Bexley Public School,NSW,Government,Primary,Major Cities,-33.947687,151.128861
Bondi Public School,NSW,Government,Primary,Major Cities,-33.892625,151.264753
Bourke Street Public School,NSW,Government,Primary,Major Cities,-33.890546,151.215741
Croydon Public School,NSW,Government,Primary,Major Cities,-33.879793,151.114887
Croydon Park Public School,NSW,Government,Primary,Major Cities,-33.894695,151.108395
Daceyville Public School,NSW,Government,Primary,Major Cities,-33.929548,151.227984
Darlinghurst Public School,NSW,Government,Primary,Major Cities,-33.878599,151.223432
Gardeners Road Public School,NSW,Government,Primary,Major Cities,-33.920643,151.198034
Glebe Public School,NSW,Government,Primary,Major Cities,-33.883685,151.19097
Leichhardt Public School,NSW,Government,Primary,Major Cities,-33.88427,151.15814
Maroubra Junction Public School,NSW,Government,Primary,Major Cities,-33.93685816,151.2399335
Newtown Public School,NSW,Government,Primary,Major Cities,-33.899991,151.179405
Paddington Public School,NSW,Government,Primary,Major Cities,-33.887603,151.230188
Rozelle Public School,NSW,Government,Primary,Major Cities,-33.862581,151.169749
Stanmore Public School,NSW,Government,Primary,Major Cities,-33.895506,151.165283
Woollahra Public School,NSW,Government,Primary,Major Cities,-33.886379,151.24119
Canterbury Boys High School,NSW,Government,Secondary,Major Cities,-33.90475103,151.1235317
St George Girls High School,NSW,Government,Secondary,Major Cities,-33.959073,151.136035
Sydney Boys High School,NSW,Government,Secondary,Major Cities,-33.89224479,151.2191102
Sydney Girls High School,NSW,Government,Secondary,Major Cities,-33.894191,151.220371
Sydney Technical High School,NSW,Government,Secondary,Major Cities,-33.963075,151.114342
Conservatorium High School,NSW,Government,Secondary,Major Cities,-33.863407,151.21408
Burwood Girls High School,NSW,Government,Secondary,Major Cities,-33.875318,151.113036
Randwick Boys High School,NSW,Government,Secondary,Major Cities,-33.924245,151.23841
Randwick Girls High School,NSW,Government,Secondary,Major Cities,-33.921832,151.23944
Kingsgrove North High School,NSW,Government,Secondary,Major Cities,-33.93398,151.097628
Port Hacking High School,NSW,Government,Secondary,Major Cities,-34.03257,151.098293
Blakehurst High School,NSW,Government,Secondary,Major Cities,-33.980406,151.11324
Caringbah High School,NSW,Government,Secondary,Major Cities,-34.03362397,151.1206652
Moorefield Girls High School,NSW,Government,Secondary,Major Cities,-33.968311,151.137739
Heathcote High School,NSW,Government,Secondary,Major Cities,-34.082295,151.01441
Kingsgrove High School,NSW,Government,Secondary,Major Cities,-33.948519,151.101653
Matraville Sports High School,NSW,Government,Secondary,Major Cities,-33.964747,151.244548
Cronulla High School,NSW,Government,Secondary,Major Cities,-34.039583,151.157393
J J Cahill Memorial High School,NSW,Government,Secondary,Major Cities,-33.92777913,151.2007449
Lucas Heights Community School,NSW,Government,Combined,Major Cities,-34.035778,151.004817
Central Sydney Intensive English High School,NSW,Government,Secondary,Major Cities,-33.89978889,151.1937717
Kogarah High School,NSW,Government,Secondary,Major Cities,-33.961161,151.134227
Gymea Technology High School,NSW,Government,Secondary,Major Cities,-34.029985,151.08338
Endeavour Sports High School,NSW,Government,Secondary,Major Cities,-34.031816,151.11945
Georges River College Peakhurst Campus,NSW,Government,Secondary,Major Cities,-33.96711175,151.0562066
Engadine High School,NSW,Government,Secondary,Major Cities,-34.062141,151.019341
Woolooware High School,NSW,Government,Secondary,Major Cities,-34.039811,151.145595
Kirrawee High School,NSW,Government,Secondary,Major Cities,-34.04348,151.073475
Sylvania High School,NSW,Government,Secondary,Major Cities,-34.017367,151.103529
Sydney Secondary College Balmain Campus,NSW,Government,Secondary,Major Cities,-33.858506,151.170052
Fort Street High School,NSW,Government,Secondary,Major Cities,-33.890196,151.1529
Tempe High School,NSW,Government,Secondary,Major Cities,-33.91975,151.16094
Sydney Secondary College Leichhardt Campus,NSW,Government,Secondary,Major Cities,-33.879463,151.159003
Newtown High School of Performing Arts,NSW,Government,Secondary,Major Cities,-33.899534,151.178338
Marrickville High School,NSW,Government,Secondary,Major Cities,-33.905781,151.155995
South Sydney High School,NSW,Government,Secondary,Major Cities,-33.944154,151.234397
Rose Bay Secondary College,NSW,Government,Secondary,Major Cities,-33.878347,151.276121
Alexandria Park Community School,NSW,Government,Combined,Major Cities,-33.900248,151.195561
Menai High School,NSW,Government,Secondary,Major Cities,-34.002904,151.023851
Sydney Distance Education High School,NSW,Government,Secondary,Major Cities,-33.871053,151.22098
Canterbury Girls High School,NSW,Government,Secondary,Major Cities,-33.907264,151.122631
Georges River College Hurstville Campus,NSW,Government,Secondary,Major Cities,-33.962826,151.109808
Ashfield Boys High School,NSW,Government,Secondary,Major Cities,-33.889547,151.129219
Dulwich High School of Visual Arts and Design,NSW,Government,Secondary,Major Cities,-33.904038,151.144871
The Jannali High School,NSW,Government,Secondary,Major Cities,-34.015719,151.062224
Georges River College Penshurst Campus,NSW,Government,Secondary,Major Cities,-33.964071,151.08601
James Cook Boys High School,NSW,Government,Secondary,Major Cities,-33.96648,151.13709
Arcadia Public School,NSW,Government,Primary,Inner Regional,-33.623487,151.051031
Artarmon Public School,NSW,Government,Primary,Major Cities,-33.811249,151.186001
Asquith Public School,NSW,Government,Primary,Major Cities,-33.685729,151.112177
Seaforth Public School,NSW,Government,Primary,Major Cities,-33.793262,151.251235
Beecroft Public School,NSW,Government,Primary,Major Cities,-33.752085,151.06462
Berowra Public School,NSW,Government,Primary,Major Cities,-33.618522,151.148996
Boronia Park Public School,NSW,Government,Primary,Major Cities,-33.821414,151.135558
Brooklyn Public School,NSW,Government,Primary,Inner Regional,-33.548414,151.214992
Brookvale Public School,NSW,Government,Primary,Major Cities,-33.761678,151.270787
Cammeray Public School,NSW,Government,Primary,Major Cities,-33.820422,151.211542
Castle Hill Public School,NSW,Government,Primary,Major Cities,-33.727887,151.004663
Cowan Public School,NSW,Government,Primary,Inner Regional,-33.588808,151.168843
Dee Why Public School,NSW,Government,Primary,Major Cities,-33.749025,151.285209
Dural Public School,NSW,Government,Primary,Major Cities,-33.686057,151.026394
Epping Public School,NSW,Government,Primary,Major Cities,-33.770727,151.087878
Epping West Public School,NSW,Government,Primary,Major Cities,-33.772789,151.068048
Ermington Public School,NSW,Government,Primary,Major Cities,-33.80478016,151.0700943
Frenchs Forest Public School,NSW,Government,Primary,Major Cities,-33.751516,151.224695
Galston Public School,NSW,Government,Primary,Major Cities,-33.64801332,151.0453766
Gladesville Public School,NSW,Government,Primary,Major Cities,-33.832977,151.125699
Glenhaven Public School,NSW,Government,Primary,Major Cities,-33.700792,151.002882
Glenorie Public School,NSW,Government,Primary,Inner Regional,-33.599444,151.008082
Greenwich Public School,NSW,Government,Primary,Major Cities,-33.82587,151.183252
Harbord Public School,NSW,Government,Primary,Major Cities,-33.77266218,151.2857899
Hillside Public School,NSW,Government,Primary,Inner Regional,-33.601784,150.976151
Hunters Hill Public School,NSW,Government,Primary,Major Cities,-33.835121,151.151254
Kenthurst Public School,NSW,Government,Primary,Major Cities,-33.66528187,151.004102
Lane Cove Public School,NSW,Government,Primary,Major Cities,-33.816514,151.169134
Lindfield Public School,NSW,Government,Primary,Major Cities,-33.78075,151.168917
Lindfield East Public School,NSW,Government,Primary,Major Cities,-33.767479,151.18429
Manly West Public School,NSW,Government,Primary,Major Cities,-33.791875,151.268753
Middle Dural Public School,NSW,Government,Primary,Major Cities,-33.64496,151.023178
Middle Harbour Public School,NSW,Government,Primary,Major Cities,-33.82282,151.2327
Mona Vale Public School,NSW,Government,Primary,Major Cities,-33.676998,151.300404
Narrabeen Lakes Public School,NSW,Government,Primary,Major Cities,-33.720323,151.297413
Neutral Bay Public School,NSW,Government,Primary,Major Cities,-33.83261,151.219605
Newport Public School,NSW,Government,Primary,Major Cities,-33.660561,151.312237
Normanhurst Public School,NSW,Government,Primary,Major Cities,-33.72338838,151.0980303
Northbridge Public School,NSW,Government,Primary,Major Cities,-33.81240158,151.218895
North Rocks Public School,NSW,Government,Primary,Major Cities,-33.768425,151.025148
North Sydney Public School,NSW,Government,Primary,Major Cities,-33.834819,151.203685
Pennant Hills Public School,NSW,Government,Primary,Major Cities,-33.7358,151.068058
West Pennant Hills Public School,NSW,Government,Primary,Major Cities,-33.746075,151.050491
Putney Public School,NSW,Government,Primary,Major Cities,-33.824562,151.110973
Roseville Public School,NSW,Government,Primary,Major Cities,-33.781883,151.188666
Ryde Public School,NSW,Government,Primary,Major Cities,-33.812552,151.108015
North Ryde Public School,NSW,Government,Primary,Major Cities,-33.794766,151.120042
West Ryde Public School,NSW,Government,Primary,Major Cities,-33.808363,151.085097
Terrey Hills Public School,NSW,Government,Primary,Major Cities,-33.685723,151.222619
Turramurra North Public School,NSW,Government,Primary,Major Cities,-33.714724,151.147816
Waitara Public School,NSW,Government,Primary,Major Cities,-33.707881,151.111556
Warrawee Public School,NSW,Government,Primary,Major Cities,-33.729484,151.121236
Willoughby Public School,NSW,Government,Primary,Major Cities,-33.802197,151.200123
Annangrove Public School,NSW,Government,Primary,Major Cities,-33.667417,150.95255
Balgowlah Heights Public School,NSW,Government,Primary,Major Cities,-33.805718,151.257767
Belrose Public School,NSW,Government,Primary,Major Cities,-33.727235,151.216645
Pymble Public School,NSW,Government,Primary,Major Cities,-33.732269,151.141089
Avalon Public School,NSW,Government,Primary,Major Cities,-33.63962493,151.3270551
Narraweena Public School,NSW,Government,Primary,Major Cities,-33.74938018,151.2738291
Wahroonga Public School,NSW,Government,Primary,Major Cities,-33.715583,151.128476
Melrose Park Public School,NSW,Government,Primary,Major Cities,-33.814849,151.071939
Turramurra Public School,NSW,Government,Primary,Major Cities,-33.745258,151.114305
Denistone East Public School,NSW,Government,Primary,Major Cities,-33.7943,151.096571
Meadowbank Public School,NSW,Government,Primary,Major Cities,-33.812791,151.091977
Mount Colah Public School,NSW,Government,Primary,Major Cities,-33.672947,151.115695
Narrabeen North Public School,NSW,Government,Primary,Major Cities,-33.69988246,151.2982398
Lane Cove West Public School,NSW,Government,Primary,Major Cities,-33.809886,151.152003
Killara Public School,NSW,Government,Primary,Major Cities,-33.76593324,151.1481823
Castle Cove Public School,NSW,Government,Primary,Major Cities,-33.783375,151.201973
Curl Curl North Public School,NSW,Government,Primary,Major Cities,-33.764639,151.289314
Gordon West Public School,NSW,Government,Primary,Major Cities,-33.760318,151.139223
Manly Village Public School,NSW,Government,Primary,Major Cities,-33.7993832,151.287407
Beaumont Road Public School,NSW,Government,Primary,Major Cities,-33.774289,151.146271
Collaroy Plateau Public School,NSW,Government,Primary,Major Cities,-33.73297,151.29344
Beacon Hill Public School,NSW,Government,Primary,Major Cities,-33.75163,151.260584
Balgowlah North Public School,NSW,Government,Primary,Major Cities,-33.783267,151.246457
Gordon East Public School,NSW,Government,Primary,Major Cities,-33.745915,151.157351
Mowbray Public School,NSW,Government,Primary,Major Cities,-33.803943,151.155895
Forestville Public School,NSW,Government,Primary,Major Cities,-33.761582,151.212803
Manly Vale Public School,NSW,Government,Primary,Major Cities,-33.783497,151.25976
Epping Heights Public School,NSW,Government,Primary,Major Cities,-33.762695,151.07408
Eastwood Heights Public School,NSW,Government,Primary,Major Cities,-33.781914,151.095463
Mount Kuring-gai Public School,NSW,Government,Primary,Major Cities,-33.657474,151.135604
Kent Road Public School,NSW,Government,Primary,Major Cities,-33.787415,151.108936
Truscott Street Public School,NSW,Government,Primary,Major Cities,-33.794097,151.130918
Epping North Public School,NSW,Government,Primary,Major Cities,-33.757643,151.095425
Elanora Heights Public School,NSW,Government,Primary,Major Cities,-33.703672,151.284751
Allambie Heights Public School,NSW,Government,Primary,Major Cities,-33.76535561,151.2495833
Cromer Public School,NSW,Government,Primary,Major Cities,-33.738009,151.274661
Wheeler Heights Public School,NSW,Government,Primary,Major Cities,-33.72779,151.284764
Ryde East Public School,NSW,Government,Primary,Major Cities,-33.807139,151.125864
Hornsby Heights Public School,NSW,Government,Primary,Major Cities,-33.66982872,151.0966448
Normanhurst West Public School,NSW,Government,Primary,Major Cities,-33.71893,151.086789
Thornleigh West Public School,NSW,Government,Primary,Major Cities,-33.723864,151.072163
West Pymble Public School,NSW,Government,Primary,Major Cities,-33.763937,151.124401
St Ives North Public School,NSW,Government,Primary,Major Cities,-33.718672,151.163635
Roselea Public School,NSW,Government,Primary,Major Cities,-33.76539227,151.0532828
St Ives Public School,NSW,Government,Primary,Major Cities,-33.73855133,151.1667166
Bilgola Plateau Public School,NSW,Government,Primary,Major Cities,-33.644021,151.313406
Hornsby North Public School,NSW,Government,Primary,Major Cities,-33.682646,151.098865
Wakehurst Public School,NSW,Government,Primary,Major Cities,-33.73940542,151.2178968
Baulkham Hills North Public School,NSW,Government,Primary,Major Cities,-33.751939,150.999861
Killarney Heights Public School,NSW,Government,Primary,Major Cities,-33.774942,151.216151
St Ives Park Public School,NSW,Government,Primary,Major Cities,-33.724082,151.178775
Murray Farm Public School,NSW,Government,Primary,Major Cities,-33.766119,151.040173
Mimosa Public School,NSW,Government,Primary,Major Cities,-33.743343,151.205909
Wideview Public School,NSW,Government,Primary,Major Cities,-33.608499,151.14151
Cherrybrook Public School,NSW,Government,Primary,Major Cities,-33.731277,151.042056
Kambora Public School,NSW,Government,Primary,Major Cities,-33.740137,151.1945
John Purchase Public School,NSW,Government,Primary,Major Cities,-33.71895848,151.0395302
Samuel Gilbert Public School,NSW,Government,Primary,Major Cities,-33.713106,150.992027
Oakhill Drive Public School,NSW,Government,Primary,Major Cities,-33.721563,151.022997
Hornsby South Public School,NSW,Government,Primary,Major Cities,-33.713499,151.095148
Beauty Point Public School,NSW,Government,Primary,Major Cities,-33.812008,151.241883
Fisher Road School,NSW,Government,Combined,Major Cities,-33.746131,151.287466
Cromehurst School,NSW,Government,Combined,Major Cities,-33.773952,151.172207
Naremburn School,NSW,Government,Secondary,Major Cities,-33.819372,151.200343
The Beach School,NSW,Government,Secondary,Major Cities,-33.772011,151.262488
Clarke Road School,NSW,Government,Combined,Major Cities,-33.712072,151.095647
Arranounbai School,NSW,Government,Combined,Major Cities,-33.757252,151.241935
Karonga School,NSW,Government,Combined,Major Cities,-33.770806,151.06064
Sir Eric Woodward Memorial School,NSW,Government,Combined,Major Cities,-33.719579,151.179755
Chatswood Public School,NSW,Government,Primary,Major Cities,-33.798242,151.17759
Eastwood Public School,NSW,Government,Primary,Major Cities,-33.792743,151.078474
Mosman Public School,NSW,Government,Primary,Major Cities,-33.828052,151.241198
Hornsby Girls High School,NSW,Government,Secondary,Major Cities,-33.706627,151.101083
North Sydney Boys High School,NSW,Government,Secondary,Major Cities,-33.82963678,151.2073723
North Sydney Girls High School,NSW,Government,Secondary,Major Cities,-33.830244,151.203447
Willoughby Girls High School,NSW,Government,Secondary,Major Cities,-33.803128,151.199957
Hunters Hill High School,NSW,Government,Secondary,Major Cities,-33.832696,151.148509
Cheltenham Girls High School,NSW,Government,Secondary,Major Cities,-33.756538,151.073155
Normanhurst Boys High School,NSW,Government,Secondary,Major Cities,-33.721475,151.101466
Asquith Girls High School,NSW,Government,Secondary,Major Cities,-33.689716,151.11275
Marsden High School,NSW,Government,Secondary,Major Cities,-33.812981,151.092237
Chatswood High School,NSW,Government,Secondary,Major Cities,-33.800013,151.175324
Riverside Girls High School,NSW,Government,Secondary,Major Cities,-33.840079,151.141467
Asquith Boys High School,NSW,Government,Secondary,Major Cities,-33.69233019,151.1027442
Mosman High School,NSW,Government,Secondary,Major Cities,-33.829677,151.243425
The Forest High School,NSW,Government,Secondary,Major Cities,-33.750298,151.2298
Pittwater High School,NSW,Government,Secondary,Major Cities,-33.668259,151.302664
Castle Hill High School,NSW,Government,Secondary,Major Cities,-33.726635,150.999534
St Ives High School,NSW,Government,Secondary,Major Cities,-33.740147,151.167078
Ryde Secondary College,NSW,Government,Secondary,Major Cities,-33.813316,151.119176
Ku-ring-gai High School,NSW,Government,Secondary,Major Cities,-33.690973,151.153809
Killarney Heights High School,NSW,Government,Secondary,Major Cities,-33.771925,151.215215
Turramurra High School,NSW,Government,Secondary,Major Cities,-33.757307,151.114786
Pennant Hills High School,NSW,Government,Secondary,Major Cities,-33.733692,151.061087
Carlingford High School,NSW,Government,Secondary,Major Cities,-33.76585731,151.0511899
Barrenjoey High School,NSW,Government,Secondary,Major Cities,-33.63117,151.333926
Killara High School,NSW,Government,Secondary,Major Cities,-33.756575,151.174102
Davidson High School,NSW,Government,Secondary,Major Cities,-33.74468,151.205465
Galston High School,NSW,Government,Secondary,Major Cities,-33.660931,151.042348
Muirfield High School,NSW,Government,Secondary,Major Cities,-33.764695,151.022294
Northern Beaches Secondary College Cromer Campus,NSW,Government,Secondary,Major Cities,-33.737765,151.284453
Narrabeen Sports High School,NSW,Government,Secondary,Major Cities,-33.700941,151.298401
Northern Beaches Secondary College Manly Campus,NSW,Government,Secondary,Major Cities,-33.762416,151.281334
Cherrybrook Technology High School,NSW,Government,Secondary,Major Cities,-33.719852,151.037583
Northern Beaches Secondary College Mackellar Girls Campus,NSW,Government,Secondary,Major Cities,-33.782109,151.272401
Northern Beaches Secondary College Balgowlah Boys Campus,NSW,Government,Secondary,Major Cities,-33.796405,151.254607
Epping Boys High School,NSW,Government,Secondary,Major Cities,-33.769453,151.099645
Appin Public School,NSW,Government,Primary,Inner Regional,-34.198417,150.78766
Auburn North Public School,NSW,Government,Primary,Major Cities,-33.841669,151.038618
Auburn West Public School,NSW,Government,Primary,Major Cities,-33.860931,151.019764
Austral Public School,NSW,Government,Primary,Major Cities,-33.934487,150.812638
Greenacre Public School,NSW,Government,Primary,Major Cities,-33.911161,151.057581
Bankstown North Public School,NSW,Government,Primary,Major Cities,-33.904888,151.038043
Bargo Public School,NSW,Government,Primary,Inner Regional,-34.292889,150.58274
Bass Hill Public School,NSW,Government,Primary,Major Cities,-33.905902,151.005779
Belmore North Public School,NSW,Government,Primary,Major Cities,-33.909885,151.084885
Belmore South Public School,NSW,Government,Primary,Major Cities,-33.925735,151.091985
Berala Public School,NSW,Government,Primary,Major Cities,-33.869714,151.028244
Blaxcell Street Public School,NSW,Government,Primary,Major Cities,-33.85796326,151.0060599
Bossley Park Public School,NSW,Government,Primary,Major Cities,-33.857424,150.882543
Bringelly Public School,NSW,Government,Primary,Inner Regional,-33.93791,150.730266
Burwood Public School,NSW,Government,Primary,Major Cities,-33.8768,151.098987
Buxton Public School,NSW,Government,Primary,Inner Regional,-34.246971,150.544826
Cabramatta Public School,NSW,Government,Primary,Major Cities,-33.895823,150.942629
Camden Public School,NSW,Government,Primary,Major Cities,-34.051998,150.693236
Campbelltown Public School,NSW,Government,Primary,Major Cities,-34.070109,150.815634
Campsie Public School,NSW,Government,Primary,Major Cities,-33.911863,151.104846
Canley Vale Public School,NSW,Government,Primary,Major Cities,-33.88676,150.937632
Cawdor Public School,NSW,Government,Primary,Major Cities,-34.109711,150.673727
Chipping Norton Public School,NSW,Government,Primary,Major Cities,-33.912031,150.959822
Cobbitty Public School,NSW,Government,Primary,Major Cities,-34.0159,150.685938
Concord Public School,NSW,Government,Primary,Major Cities,-33.863224,151.106944
Concord West Public School,NSW,Government,Primary,Major Cities,-33.839613,151.087317
Douglas Park Public School,NSW,Government,Primary,Inner Regional,-34.179484,150.713038
Panania Public School,NSW,Government,Primary,Major Cities,-33.965972,150.99946
Enfield Public School,NSW,Government,Primary,Major Cities,-33.888598,151.094528
Fairfield Public School,NSW,Government,Primary,Major Cities,-33.866847,150.955409
Fairfield West Public School,NSW,Government,Primary,Major Cities,-33.868037,150.924762
Glenfield Public School,NSW,Government,Primary,Major Cities,-33.971005,150.896584
Granville Public School,NSW,Government,Primary,Major Cities,-33.834264,151.004671
Granville South Public School,NSW,Government,Primary,Major Cities,-33.8487994,150.9967375
Green Valley Public School,NSW,Government,Primary,Major Cities,-33.901508,150.868753
Guildford Public School,NSW,Government,Primary,Major Cities,-33.855821,150.981983
Hammondville Public School,NSW,Government,Primary,Major Cities,-33.947273,150.954525
Homebush Public School,NSW,Government,Primary,Major Cities,-33.867319,151.08523
Horsley Park Public School,NSW,Government,Primary,Major Cities,-33.840414,150.852683
Hoxton Park Public School,NSW,Government,Primary,Major Cities,-33.931881,150.849626
Ingleburn Public School,NSW,Government,Primary,Major Cities,-34.000332,150.866612
Kentlyn Public School,NSW,Government,Primary,Major Cities,-34.073132,150.858576
Lakemba Public School,NSW,Government,Primary,Major Cities,-33.923615,151.070046
Lidcombe Public School,NSW,Government,Primary,Major Cities,-33.861019,151.046926
Merrylands Public School,NSW,Government,Primary,Major Cities,-33.840516,150.976047
Milperra Public School,NSW,Government,Primary,Major Cities,-33.941254,150.97932
Minto Public School,NSW,Government,Primary,Major Cities,-34.029979,150.847266
Mortlake Public School,NSW,Government,Primary,Major Cities,-33.849829,151.103861
Mount Hunter Public School,NSW,Government,Primary,Inner Regional,-34.07129684,150.6365139
Mount Pritchard Public School,NSW,Government,Primary,Major Cities,-33.899845,150.900007
Narellan Public School,NSW,Government,Primary,Major Cities,-34.042764,150.733769
Oakdale Public School,NSW,Government,Primary,Inner Regional,-34.078907,150.508197
The Oaks Public School,NSW,Government,Primary,Inner Regional,-34.07889369,150.5715885
Old Guildford Public School,NSW,Government,Primary,Major Cities,-33.867484,150.986508
Padstow Park Public School,NSW,Government,Primary,Major Cities,-33.954955,151.030882
Picton Public School,NSW,Government,Primary,Inner Regional,-34.17624,150.609346
Prestons Public School,NSW,Government,Primary,Major Cities,-33.94642,150.889961
Punchbowl Public School,NSW,Government,Primary,Major Cities,-33.930613,151.055905
Leppington Public School,NSW,Government,Primary,Major Cities,-33.95928,150.810041
Regents Park Public School,NSW,Government,Primary,Major Cities,-33.885518,151.024693
Revesby Public School,NSW,Government,Primary,Major Cities,-33.944449,151.017145
Rossmore Public School,NSW,Government,Primary,Major Cities,-33.946493,150.770857
St Johns Park Public School,NSW,Government,Primary,Major Cities,-33.887204,150.899278
Smithfield Public School,NSW,Government,Primary,Major Cities,-33.853583,150.933495
Strathfield North Public School,NSW,Government,Primary,Major Cities,-33.854531,151.09204
Strathfield South Public School,NSW,Government,Primary,Major Cities,-33.89078,151.084702
Tahmoor Public School,NSW,Government,Primary,Inner Regional,-34.227663,150.588951
Thirlmere Public School,NSW,Government,Primary,Inner Regional,-34.204832,150.569311
Carramar Public School,NSW,Government,Primary,Major Cities,-33.885512,150.969204
Yanderra Public School,NSW,Government,Primary,Inner Regional,-34.320475,150.571244
Kemps Creek Public School,NSW,Government,Primary,Major Cities,-33.882805,150.790299
Fairfield Heights Public School,NSW,Government,Primary,Major Cities,-33.8679,150.952
Warwick Farm Public School,NSW,Government,Primary,Major Cities,-33.910514,150.929576
Chester Hill Public School,NSW,Government,Primary,Major Cities,-33.885597,151.00161
Georges Hall Public School,NSW,Government,Primary,Major Cities,-33.912435,150.9922
Riverwood Public School,NSW,Government,Primary,Major Cities,-33.947208,151.046586
Condell Park Public School,NSW,Government,Primary,Major Cities,-33.925486,151.013674
Chullora Public School,NSW,Government,Primary,Major Cities,-33.895371,151.060249
Chalmers Road School,NSW,Government,Combined,Major Cities,-33.879569,151.081613
Yagoona Public School,NSW,Government,Primary,Major Cities,-33.909174,151.026716
Wattle Grove Public School,NSW,Government,Primary,Major Cities,-33.958654,150.937482
Narwee Public School,NSW,Government,Primary,Major Cities,-33.948133,151.06871
East Hills Public School,NSW,Government,Primary,Major Cities,-33.957953,150.991975
Beverly Hills North Public School,NSW,Government,Primary,Major Cities,-33.940606,151.074837
Padstow Heights Public School,NSW,Government,Primary,Major Cities,-33.966519,151.030001
Villawood East Public School,NSW,Government,Primary,Major Cities,-33.890154,150.986013
Cabramatta West Public School,NSW,Government,Primary,Major Cities,-33.896341,150.92285
Chester Hill North Public School,NSW,Government,Primary,Major Cities,-33.872352,151.001039
Canley Heights Public School,NSW,Government,Primary,Major Cities,-33.884812,150.922611
Yennora Public School,NSW,Government,Primary,Major Cities,-33.866656,150.970581
Guildford West Public School,NSW,Government,Primary,Major Cities,-33.847672,150.966496
Fairvale Public School,NSW,Government,Primary,Major Cities,-33.87657384,150.9407067
Panania North Public School,NSW,Government,Primary,Major Cities,-33.944499,150.999631
Revesby South Public School,NSW,Government,Primary,Major Cities,-33.96054371,151.0172147
Birrong Public School,NSW,Government,Primary,Major Cities,-33.895596,151.02007
Leumeah Public School,NSW,Government,Primary,Major Cities,-34.049425,150.840373
Wattawa Heights Public School,NSW,Government,Primary,Major Cities,-33.914921,151.012095
Macquarie Fields Public School,NSW,Government,Primary,Major Cities,-33.995325,150.882486
Villawood North Public School,NSW,Government,Primary,Major Cities,-33.877111,150.972454
Padstow North Public School,NSW,Government,Primary,Major Cities,-33.945302,151.031421
Hannans Road Public School,NSW,Government,Primary,Major Cities,-33.945271,151.057599
Campbelltown North Public School,NSW,Government,Primary,Major Cities,-34.061201,150.826589
Bankstown West Public School,NSW,Government,Primary,Major Cities,-33.91577255,151.0195444
Tower Street Public School,NSW,Government,Primary,Major Cities,-33.956383,151.007373
Liverpool West Public School,NSW,Government,Primary,Major Cities,-33.927101,150.907691
Casula Public School,NSW,Government,Primary,Major Cities,-33.944218,150.9092
Mount Pritchard East Public School,NSW,Government,Primary,Major Cities,-33.905097,150.912044
Banksia Road Public School,NSW,Government,Primary,Major Cities,-33.906898,151.05011
Campbelltown East Public School,NSW,Government,Primary,Major Cities,-34.072299,150.831753
Marsden Road Public School,NSW,Government,Primary,Major Cities,-33.916491,150.912841
Camden South Public School,NSW,Government,Primary,Major Cities,-34.069741,150.69563
Holsworthy Public School,NSW,Government,Primary,Major Cities,-33.957072,150.953581
Lurnea Public School,NSW,Government,Primary,Major Cities,-33.932082,150.891925
Bardia Public School,NSW,Government,Primary,Major Cities,-33.97528,150.857923
Ringrose Public School,NSW,Government,Primary,Major Cities,-33.82002221,150.9590261
Harrington Street Public School,NSW,Government,Primary,Major Cities,-33.888245,150.909432
Sadleir Public School,NSW,Government,Primary,Major Cities,-33.915843,150.891029
Sherwood Grange Public School,NSW,Government,Primary,Major Cities,-33.836784,150.960103
Heckenberg Public School,NSW,Government,Primary,Major Cities,-33.908784,150.890543
Busby Public School,NSW,Government,Primary,Major Cities,-33.911561,150.881313
Miller Public School,NSW,Government,Primary,Major Cities,-33.921454,150.876881
Picnic Point Public School,NSW,Government,Primary,Major Cities,-33.969119,151.010243
Ashcroft Public School,NSW,Government,Primary,Major Cities,-33.916395,150.89839
Smithfield West Public School,NSW,Government,Primary,Major Cities,-33.857608,150.91788
Cartwright Public School,NSW,Government,Primary,Major Cities,-33.925284,150.890943
Lansvale East Public School,NSW,Government,Primary,Major Cities,-33.897993,150.964109
Busby West Public School,NSW,Government,Primary,Major Cities,-33.906099,150.87445
Bradbury Public School,NSW,Government,Primary,Major Cities,-34.08630471,150.8134216
Nuwarra Public School,NSW,Government,Primary,Major Cities,-33.933241,150.951499
Briar Road Public School,NSW,Government,Primary,Major Cities,-34.089103,150.827673
Curran Public School,NSW,Government,Primary,Major Cities,-33.99330467,150.8985601
Guise Public School,NSW,Government,Primary,Major Cities,-33.98741644,150.8957356
Mawarra Public School,NSW,Government,Primary,Major Cities,-34.061245,150.7122
King Park Public School,NSW,Government,Primary,Major Cities,-33.879147,150.910701
Widemere Public School,NSW,Government,Primary,Major Cities,-33.834174,150.939897
John Warby Public School,NSW,Government,Primary,Major Cities,-34.082225,150.834434
St Andrews Public School,NSW,Government,Primary,Major Cities,-34.022532,150.831362
Ruse Public School,NSW,Government,Primary,Major Cities,-34.066949,150.841573
Campbellfield Public School,NSW,Government,Primary,Major Cities,-34.037684,150.847422
Sackville Street Public School,NSW,Government,Primary,Major Cities,-34.011068,150.863607
Woodland Road Public School,NSW,Government,Primary,Major Cities,-34.097072,150.815078
Hampden Park Public School,NSW,Government,Primary,Major Cities,-33.914957,151.074029
Newbridge Heights Public School,NSW,Government,Primary,Major Cities,-33.926068,150.952069
Ambarvale Public School,NSW,Government,Primary,Major Cities,-34.086423,150.798192
Sarah Redfern Public School,NSW,Government,Primary,Major Cities,-34.02765,150.85091
Claymore Public School,NSW,Government,Primary,Major Cities,-34.043125,150.809517
The Grange Public School,NSW,Government,Primary,Major Cities,-34.022051,150.857358
Glenwood Public School,NSW,Government,Primary,Major Cities,-33.974542,150.903028
Blairmount Public School,NSW,Government,Primary,Major Cities,-34.048007,150.802444
Rosemeadow Public School,NSW,Government,Primary,Major Cities,-34.104647,150.794537
Thomas Acres Public School,NSW,Government,Primary,Major Cities,-34.093621,150.789247
Bonnyrigg Public School,NSW,Government,Primary,Major Cities,-33.887728,150.888962
